# ------- LAS файл, созданный программой "GeoData" ------- #

~Version  information
# ---------------- ИНФОРМАЦИЯ О LAS-ФАЙЛЕ ---------------- #
VERS.                               1.20: CWLS log ASCII Standart - VERSION 1.20
WRAP.                                 NO: One line per depth step

~Well
# ----------------- ЗНАЧЕНИЯ ПАРАМЕТРОВ ------------------ #
NULL.                          -32768.00: Нулевое значение
WELL.                               WELL: 305
FLD .                              FIELD: Луза
STRT.M                              0,20: First depth
STOP.M                           1060,60: Last depth
STEP.M                              0.20: Depth increment
DATE.                           LOG_DATE: 
SRVC.                    SERVICE_COMPANY: 
COMP.                            COMPANY: 
CUST.                           CUSTOMER: 
CNTY.                            COUNTRY: 
METD.                             METHOD: 
DPST.                            DEPOSIT: 
STTP.                        тип_станции: 
GTIP.                         партия_ГТИ: 
CHTP.                   тип_хроматографа: 
GRMT.                   начальник_отряда: 
BOSS.                   начальник_партии: 
DRLM.                        вид_бурения: 
PERS.                          операторы: 
OTR .                       номер_отряда: 
PRJD.M                   проектный_забой: 0,0
ALTR.M                  альтитуда_ротора: 0,0
WDIM.MM                 диаметр_скважины: 0,0
KDIM.MM               диаметр_кондуктора: 0,0
BKND.                  башмак_кондуктора: 0,0
KUST.                               Куст: 

~Curve
# ------------------- НАЗВАНИЯ КРИВЫХ -------------------- #
DEPT.м                                  : Глубина
TIME.                                   : Время
тальблок.м                              : Положение тальблока
вес_на_крюке.т                          : Вес на крюке
нагрузка.т.                             : Нагрузка на долото
момент_ротора.кН*м                      : Крутящий момент ротора
давление_на_входе.атм.                  : Давление ПЖ на входе
расход_на_входе.л/с                     : Расход ПЖ на входе
обороты_ротора.об/мин                   : Обороты ротора
температура_на_выходе.°С                : Температура на выходе
ходы_насоса1.ход/мин                    : Ходы насоса-1
ходы_насоса2.ход/мин                    : Ходы насоса-2
уровень_в_емкости.м                     : Уровень-1
уровень_в_емкости2.м                    : Уровень-2
уровень_в_емкости3.м                    : Уровень-3
объем_в_емкости1.м3                     : Объём-1
объем_в_емкости2.м3                     : Объём-2
объем_в_емкости3.м3                     : Объём-3
глубина_над_забоем.м                    : Глубина над забоем
объем_актив_емкости.м3                  : Объем ПЖ в активн.ёмкостях
скорость_механическая.м/ч               : Скорость механическая
скорость_бурения.м/ч                    : Скорость бурения
сумм_газ.%                              : Сумма газов хром.
метан_абс.%                             : Метан абс.
этан_абс.%                              : Этан абс.
пропан_абс.%                            : Пропан абс.
бутан_абс.%                             : Бутан абс.
пентан_абс.%                            : Пентан абс.
гексан_абс.%                            : Гексан абс.
метан_отн.%                             : Метан отн.
этан_отн.%                              : Этан отн.
пропан_отн.%                            : Пропан отн.
бутан_отн.%                             : Бутан отн.
пентан_отн.%                            : Пентан отн.
гексан_отн.%                            : Гексан отн.
объем_емкости.м3                        : Объем ПЖ в емкостях
объем_раствора.м3                       : Общий V раствора
PLOT.г/см3                              : Плот.пор.
POR .                                   : Пористость
CLCT.%                                  : Кальцит
DLMT.%                                  : Доломит
NO  .%                                  : Н.О.
LITO.                                   : Литология
SHL2.                                   : Шлам-2
SHL3.                                   : Шлам-3
SHL4.                                   : Шлам-4
SHL5.                                   : Шлам-5
SHL6.                                   : Шлам-6
nfst.                                   : Нефтенасыщенность
shl1.                                   : shl1
F1  .%                                  : Ф1
F2  .%                                  : Ф2
F3  .%                                  : Ф3
F4  .%                                  : Ф4
F5  .%                                  : Ф5
F6  .%                                  : Ф6
F7  .%                                  : Ф7
расход_на_выходе.%                      : Расход ПЖ на выходе
дмк .мин/м                              : ДМК
параметр1.атм                           : Параметр - 1

~Other Information
# --------------------- ТЕКСТОВЫЕ ДАННЫЕ --------------------- #
"лба" 22,40 22,40 0 0 "<1 БГ ЛБ" 0 0 11 16777215
"лба" 39,60 39,60 0 0 "<1 БГ ЛБ" 0 0 11 16777215
"лба" 58,40 58,40 0 0 "<1 БГ ЛБ" 0 0 11 16777215
"лба" 78,80 78,80 0 0 "<1 БГ ЛБ" 0 0 11 16777215
"лба" 99,20 99,20 0 0 "<1 БГ ЛБ" 0 0 11 16777215
"лба" 114,80 114,80 0 0 "<1 БГ ЛБ" 0 0 11 16777215
"лба" 131,00 131,00 0 0 "<1 БГ ЛБ" 0 0 11 16777215
"лба" 146,40 146,40 0 0 "<1 БГ ЛБ" 0 0 11 16777215
"лба" 163,20 163,20 0 0 "<1 БГ ЛБ" 0 0 11 16777215
"лба" 181,20 181,20 0 0 "<1 БГ ЛБ" 0 0 11 16777215
"лба" 197,20 197,20 0 0 "<1 БГ ЛБ" 0 0 11 16777215
"лба" 211,00 211,00 0 0 "<1 БГ ЛБ" 0 0 11 16777215
"лба" 221,80 221,80 0 0 "<1 БГ ЛБ" 0 0 11 16777215
"лба" 234,00 234,00 0 0 "<1 БГ ЛБ" 0 0 11 16777215
"лба" 246,80 246,80 0 0 "<1 БГ ЛБ" 0 0 11 16777215
"лба" 259,60 259,60 0 0 "<1 БГ ЛБ" 0 0 11 16777215
"лба" 268,60 268,60 0 0 "<1 БГ ЛБ" 0 0 11 16777215
"лба" 278,00 278,00 0 0 "<1 БГ ЛБ" 0 0 11 16777215
"лба" 284,00 284,00 0 0 "<1 БГ ЛБ" 0 0 11 16777215
"лба" 290,20 290,20 0 0 "<1 БГ ЛБ" 0 0 11 16777215
"лба" 299,40 299,40 0 0 "<1 БГ ЛБ" 0 0 11 16777215
"лба" 309,60 309,60 0 0 "<1 БГ ЛБ" 0 0 11 16777215
"лба" 319,80 319,80 0 0 "<1 БГ ЛБ" 0 0 11 16777215
"лба" 331,60 331,60 0 0 "<1 БГ ЛБ" 0 0 11 16777215
"лба" 341,00 341,00 0 0 "<1 БГ ЛБ" 0 0 11 16777215
"лба" 351,40 351,40 0 0 "<1 БГ ЛБ" 0 0 11 16777215
"лба" 359,40 359,40 0 0 "<1 БГ ЛБ" 0 0 11 16777215
"лба" 370,60 370,60 0 0 "<1 БГ ЛБ" 0 0 11 16777215
"лба" 380,80 380,80 0 0 "<1 БГ ЛБ" 0 0 11 16777215
"лба" 397,80 397,80 0 0 "<1 БГ ЛБ" 0 0 11 16777215
"лба" 415,80 415,80 0 0 "<1 БГ ЛБ" 0 0 11 16777215
"лба" 438,20 438,20 0 0 "<1 БГ ЛБ" 0 0 11 16777215
"лба" 461,00 461,00 0 0 "<1 БГ ЛБ" 0 0 11 16777215
"лба" 485,60 485,60 0 0 "<1 БГ ЛБ" 0 0 11 16777215
"лба" 501,40 501,40 0 0 "<1 БГ ЛБ" 0 0 11 16777215
"лба" 516,80 516,80 0 0 "<1 БГ ЛБ" 0 0 11 16777215
"лба" 531,40 531,40 0 0 "<1 БГ ЛБ" 0 0 11 16777215
"лба" 543,40 543,40 0 0 "<1 БГ ЛБ" 0 0 11 16777215
"лба" 552,40 552,40 0 0 "<1 БГ ЛБ" 0 0 11 16777215
"лба" 559,20 559,20 0 0 "<1 БГ ЛБ" 0 0 11 16777215
"лба" 566,60 566,60 0 0 "<1 БГ ЛБ" 0 0 11 16777215
"лба" 568,90 580,00 0 0 "нет нет нет" 0 0 11 16777215
"лба" 580,00 590,00 0 0 "нет нет нет" 0 0 11 16777215
"лба" 590,00 600,00 0 0 "нет нет нет" 0 0 11 16777215
"лба" 600,00 640,00 0 0 "нет нет нет" 0 0 11 16777215
"лба" 640,00 660,00 0 0 "нет нет нет" 0 0 11 16777215
"лба" 660,00 680,00 0 0 "нет нет нет" 0 0 11 16777215
"лба" 680,20 700,00 0 0 "нет нет нет" 0 0 11 16777215
"сумм_газ" 516,80 516,80 1176749486 0 "Проверка хроматографа" 0 0 10 16777215

# ------------------ ЗНАЧЕНИЯ КРИВЫХ ------------------ #
~ASCII Log Data
# ...
 917.0 1178080996.    9.279   38.76    6.472    4.855   59.66   36.14    0.23   22.97   61.03   -2.31    0.951    0.9126    0.8898   19.01   18.25   17.80    0.   55.06   16.36   16.08    0.000149    0.000045    0.000035    0.000025    0.000025    0.000019    0.000000   30.20   23.49   16.78   16.78   12.75    0.   55.06  159.3    0.    0.    0.00    0.000    0.00    0.0    0.00    0.00    0.00    0.00    0.    0.    0.00    0.    0.    0.    0.    0.    0.    0.   38.16    3.668  -34.96
 917.2 1178081041.    9.072   38.31    6.873    4.599   59.27   35.68    0.22   22.84   61.02   -2.31    0.956    0.9119    0.8898   19.11   18.24   17.80    0.   55.15   16.26   16.69    0.000154    0.000050    0.000037    0.000026    0.000021    0.000020    0.000000   32.47   24.03   16.88   13.64   12.99    0.   55.15  159.4    0.    0.    0.00    0.000    0.00    0.0    0.00    0.00    0.00    0.00    0.    0.    0.00    0.    0.    0.    0.    0.    0.    0.   37.99    3.691  -34.58
 917.4 1178081091.    8.892   37.49    7.160    4.858   58.39   34.92    0.22   22.64   61.28   -2.31    0.962    0.9120    0.8898   19.24   18.24   17.79    0.   55.27   13.48   15.28    0.000164    0.000058    0.000041    0.000029    0.000015    0.000021    0.000000   35.37   25.00   17.68    9.15   12.80    0.   55.27  159.6    0.    0.    0.00    0.000    0.00    0.0    0.00    0.00    0.00    0.00    0.    0.    0.00    0.    0.    0.    0.    0.    0.    0.   37.76    4.450  -34.82
 917.6 1178081136.    8.658   38.10    6.643    4.522   57.57   34.35    0.22   22.39   61.61   -2.31    0.962    0.9122    0.8899   19.24   18.24   17.80    0.   55.28   16.21   15.35    0.000098    0.000022    0.000030    0.000013    0.000015    0.000018    0.000000   22.45   30.61   13.27   15.31   18.37    0.   55.28  159.6    0.    0.    0.00    0.000    0.00    0.0    0.00    0.00    0.00    0.00    0.    0.    0.00    0.    0.    0.    0.    0.    0.    0.   37.99    3.700  -35.31
 917.8 1178081183.    8.470   38.09    6.615    4.500   56.81   34.13    0.23   22.08   61.44   -2.28    0.963    0.9123    0.8897   19.25   18.25   17.79    0.   55.29   15.85   15.30    0.000075    0.000009    0.000026    0.000008    0.000015    0.000017    0.000000   12.00   34.67   10.67   20.00   22.67    0.   55.29  159.6    0.    0.    0.00    0.000    0.00    0.0    0.00    0.00    0.00    0.00    0.    0.    0.00    0.    0.    0.    0.    0.    0.    0.   37.90    3.785  -35.06
 918.0 1178081224.    8.260   38.76    6.541    4.766   57.27   34.27    0.23   21.79   61.40   -2.31    0.968    0.9124    0.8899   19.36   18.25   17.80    0.   55.40   14.89   15.72    0.000101    0.000008    0.000035    0.000010    0.000030    0.000018    0.000000    7.92   34.65    9.90   29.70   17.82    0.   55.40  159.8    0.    0.    0.00    0.000    0.00    0.0    0.00    0.00    0.00    0.00    0.    0.    0.00    0.    0.    0.    0.    0.    0.    0.   37.90    4.030  -34.43
 918.2 1178081272.    8.085   39.26    5.264    4.496   57.28   34.51    0.23   21.60   61.38   -2.31    0.968    0.9124    0.8898   19.37   18.25   17.80    0.   55.42   14.63   15.10    0.000098    0.000008    0.000033    0.000010    0.000028    0.000019    0.000000    8.16   33.67   10.20   28.57   19.39    0.   55.42  159.8    0.    0.    0.00    0.000    0.00    0.0    0.00    0.00    0.00    0.00    0.    0.    0.00    0.    0.    0.    0.    0.    0.    0.   38.14    4.101  -35.16
 918.4 1178081317.    7.879   39.21    6.027    4.872   57.95   34.85    0.23   21.31   61.45   -2.32    0.970    0.9123    0.8897   19.39   18.25   17.79    0.   55.44   15.57   15.78    0.000090    0.000009    0.000027    0.000009    0.000019    0.000026    0.000000   10.00   30.00   10.00   21.11   28.89    0.   55.44  159.9    0.    0.    0.00    0.000    0.00    0.0    0.00    0.00    0.00    0.00    0.    0.    0.00    0.    0.    0.    0.    0.    0.    0.   38.09    3.855  -34.76
 918.6 1178081363.    7.681   38.44    6.543    4.976   58.19   34.77    0.23   21.08   61.14   -2.32    0.973    0.9125    0.8897   19.47   18.25   17.79    0.   55.51   13.97   15.75    0.000138    0.000045    0.000032    0.000020    0.000018    0.000023    0.000000   32.61   23.19   14.49   13.04   16.67    0.   55.51  160.0    0.    0.    0.00    0.000    0.00    0.0    0.00    0.00    0.00    0.00    0.    0.    0.00    0.    0.    0.    0.    0.    0.    0.   38.20    4.295  -35.29
 918.8 1178081435.    7.475   38.32    6.638    5.085   58.51   35.17   65.60   20.75   61.24   -2.32    0.974    0.9121    0.8898   19.48   18.24   17.80    0.   55.52   10.16   10.98    0.000231    0.000099    0.000044    0.000037    0.000026    0.000025    0.000000   42.86   19.05   16.02   11.26   10.82    0.   55.52  160.0    0.    0.    0.00    0.000    0.00    0.0    0.00    0.00    0.00    0.00    0.    0.    0.00    0.    0.    0.    0.    0.    0.    0.   38.09    5.905  -34.86
 919.0 1178081487.    7.271   38.64    6.740    5.157   58.91   35.42  152.78   20.44   61.44   -2.33    0.973    0.9121    0.8897   19.47   18.24   17.79    0.   55.50   13.80   12.39    0.000394    0.000137    0.000076    0.000050    0.000072    0.000059    0.000000   34.77   19.29   12.69   18.27   14.97    0.   55.50  160.0    0.    0.    0.00    0.000    0.00    0.0    0.00    0.00    0.00    0.00    0.    0.    0.00    0.    0.    0.    0.    0.    0.    0.   37.49    4.347  -34.97
 919.2 1178081529.    7.075   39.18    6.141    5.251   58.08   35.58  152.30   20.23   61.30   -2.33    0.974    0.9123    0.8898   19.47   18.24   17.80    0.   55.51   17.84   14.39    0.000320    0.000156    0.000054    0.000040    0.000038    0.000032    0.000000   48.75   16.87   12.50   11.88   10.00    0.   55.51  160.0    0.    0.    0.00    0.000    0.00    0.0    0.00    0.00    0.00    0.00    0.    0.    0.00    0.    0.    0.    0.    0.    0.    0.   37.60    3.363  -35.26
 919.4 1178081568.    6.857   38.54    6.865    5.183   59.60   35.73  152.69   20.02   61.17   -2.33    0.974    0.9120    0.8897   19.48   18.24   17.79    0.   55.51   17.98   18.89    0.000269    0.000169    0.000040    0.000033    0.000014    0.000013    0.000000   62.83   14.87   12.27    5.20    4.83    0.   55.51  160.1    0.    0.    0.00    0.000    0.00    0.0    0.00    0.00    0.00    0.00    0.    0.    0.00    0.    0.    0.    0.    0.    0.    0.   37.70    3.338  -34.27
 919.6 1178081593.    6.681   40.32    5.063    5.352   59.23   35.53  153.10   19.88   61.06   -2.33    0.974    0.9121    0.8896   19.48   18.24   17.79    0.   55.51   30.48   20.32    0.000234    0.000134    0.000034    0.000037    0.000016    0.000013    0.000000   57.26   14.53   15.81    6.84    5.56    0.   55.51  160.1    0.    0.    0.00    0.000    0.00    0.0    0.00    0.00    0.00    0.00    0.    0.    0.00    0.    0.    0.    0.    0.    0.    0.   37.62    1.968  -34.63
 919.8 1178081612.    6.461   38.55    6.813    4.993   60.27   35.91  153.73   19.78   61.38   -2.32    0.974    0.9123    0.8897   19.47   18.24   17.79    0.   55.51   35.30   26.27    0.000175    0.000071    0.000025    0.000045    0.000020    0.000014    0.000000   40.57   14.29   25.71   11.43    8.00    0.   55.51  160.1    0.    0.    0.00    0.000    0.00    0.0    0.00    0.00    0.00    0.00    0.    0.    0.00    0.    0.    0.    0.    0.    0.    0.   37.54    1.700  -34.96
 920.0 1178081654.    6.277   38.77    6.393    3.628   59.82   35.74  153.82   19.64   61.32   -2.32    0.974    0.9121    0.8897   19.48   18.24   17.79    0.   55.51   16.69   29.23    0.000175    0.000071    0.000025    0.000045    0.000020    0.000014    0.000000   40.57   14.29   25.71   11.43    8.00    0.   55.51  160.1    0.    0.    0.00    0.000    0.00    0.0    0.00    0.00    0.00    0.00    0.    0.    0.00    0.    0.    0.    0.    0.    0.    0.   37.60    3.594  -34.85
 920.2 1178081691.    6.081   38.95    6.508    3.512   59.89   36.16  152.37   19.46   61.04   -2.33    0.974    0.9116    0.8897   19.48   18.23   17.79    0.   55.50   21.42   19.88    0.000206    0.000090    0.000029    0.000039    0.000033    0.000015    0.000000   43.69   14.08   18.93   16.02    7.28    0.   55.50  160.1    0.    0.    0.00    0.000    0.00    0.0    0.00    0.00    0.00    0.00    0.    0.    0.00    0.    0.    0.    0.    0.    0.    0.   37.66    2.801  -34.87
