# ------- LAS файл, созданный программой "GeoData" ------- #

~Version  information
# ---------------- ИНФОРМАЦИЯ О LAS-ФАЙЛЕ ---------------- #
VERS.                               1.20: CWLS log ASCII Standart - VERSION 1.20
WRAP.                                 NO: One line per depth step

~Well
# ----------------- ЗНАЧЕНИЯ ПАРАМЕТРОВ ------------------ #
NULL.                          -32768.00: Нулевое значение
WELL.                               WELL: 305
FLD .                              FIELD: Луза
STRT.M                              0,20: First depth
STOP.M                           1060,60: Last depth
STEP.M                              0.20: Depth increment
DATE.                           LOG_DATE: 
SRVC.                    SERVICE_COMPANY: 
COMP.                            COMPANY: 
CUST.                           CUSTOMER: 
CNTY.                            COUNTRY: 
METD.                             METHOD: 
DPST.                            DEPOSIT: 
STTP.                        тип_станции: 
GTIP.                         партия_ГТИ: 
CHTP.                   тип_хроматографа: 
GRMT.                   начальник_отряда: 
BOSS.                   начальник_партии: 
DRLM.                        вид_бурения: 
PERS.                          операторы: 
OTR .                       номер_отряда: 
PRJD.M                   проектный_забой: 0,0
ALTR.M                  альтитуда_ротора: 0,0
WDIM.MM                 диаметр_скважины: 0,0
KDIM.MM               диаметр_кондуктора: 0,0
BKND.                  башмак_кондуктора: 0,0
KUST.                               Куст: 

~Curve
# ------------------- НАЗВАНИЯ КРИВЫХ -------------------- #
DEPT.м                                  : Глубина
TIME.                                   : Время
тальблок.м                              : Положение тальблока
вес_на_крюке.т                          : Вес на крюке
нагрузка.т.                             : Нагрузка на долото
момент_ротора.кН*м                      : Крутящий момент ротора
давление_на_входе.атм.                  : Давление ПЖ на входе
расход_на_входе.л/с                     : Расход ПЖ на входе
обороты_ротора.об/мин                   : Обороты ротора
температура_на_выходе.°С                : Температура на выходе
ходы_насоса1.ход/мин                    : Ходы насоса-1
ходы_насоса2.ход/мин                    : Ходы насоса-2
уровень_в_емкости.м                     : Уровень-1
уровень_в_емкости2.м                    : Уровень-2
уровень_в_емкости3.м                    : Уровень-3
объем_в_емкости1.м3                     : Объём-1
объем_в_емкости2.м3                     : Объём-2
объем_в_емкости3.м3                     : Объём-3
глубина_над_забоем.м                    : Глубина над забоем
объем_актив_емкости.м3                  : Объем ПЖ в активн.ёмкостях
скорость_механическая.м/ч               : Скорость механическая
скорость_бурения.м/ч                    : Скорость бурения
сумм_газ.%                              : Сумма газов хром.
метан_абс.%                             : Метан абс.
этан_абс.%                              : Этан абс.
пропан_абс.%                            : Пропан абс.
бутан_абс.%                             : Бутан абс.
пентан_абс.%                            : Пентан абс.
гексан_абс.%                            : Гексан абс.
метан_отн.%                             : Метан отн.
этан_отн.%                              : Этан отн.
пропан_отн.%                            : Пропан отн.
бутан_отн.%                             : Бутан отн.
пентан_отн.%                            : Пентан отн.
гексан_отн.%                            : Гексан отн.
объем_емкости.м3                        : Объем ПЖ в емкостях
объем_раствора.м3                       : Общий V раствора
PLOT.г/см3                              : Плот.пор.
POR .                                   : Пористость
CLCT.%                                  : Кальцит
DLMT.%                                  : Доломит
NO  .%                                  : Н.О.
LITO.                                   : Литология
SHL2.                                   : Шлам-2
SHL3.                                   : Шлам-3
SHL4.                                   : Шлам-4
SHL5.                                   : Шлам-5
SHL6.                                   : Шлам-6
nfst.                                   : Нефтенасыщенность
shl1.                                   : shl1
F1  .%                                  : Ф1
F2  .%                                  : Ф2
F3  .%                                  : Ф3
F4  .%                                  : Ф4
F5  .%                                  : Ф5
F6  .%                                  : Ф6
F7  .%                                  : Ф7
расход_на_выходе.%                      : Расход ПЖ на выходе
дмк .мин/м                              : ДМК
параметр1.атм                           : Параметр - 1

~Other Information
# --------------------- ТЕКСТОВЫЕ ДАННЫЕ --------------------- #
"лба" 22,40 22,40 0 0 "<1 БГ ЛБ" 0 0 11 16777215
"лба" 39,60 39,60 0 0 "<1 БГ ЛБ" 0 0 11 16777215
"лба" 58,40 58,40 0 0 "<1 БГ ЛБ" 0 0 11 16777215
"лба" 78,80 78,80 0 0 "<1 БГ ЛБ" 0 0 11 16777215
"лба" 99,20 99,20 0 0 "<1 БГ ЛБ" 0 0 11 16777215
"лба" 114,80 114,80 0 0 "<1 БГ ЛБ" 0 0 11 16777215
"лба" 131,00 131,00 0 0 "<1 БГ ЛБ" 0 0 11 16777215
"лба" 146,40 146,40 0 0 "<1 БГ ЛБ" 0 0 11 16777215
"лба" 163,20 163,20 0 0 "<1 БГ ЛБ" 0 0 11 16777215
"лба" 181,20 181,20 0 0 "<1 БГ ЛБ" 0 0 11 16777215
"лба" 197,20 197,20 0 0 "<1 БГ ЛБ" 0 0 11 16777215
"лба" 211,00 211,00 0 0 "<1 БГ ЛБ" 0 0 11 16777215
"лба" 221,80 221,80 0 0 "<1 БГ ЛБ" 0 0 11 16777215
"лба" 234,00 234,00 0 0 "<1 БГ ЛБ" 0 0 11 16777215
"лба" 246,80 246,80 0 0 "<1 БГ ЛБ" 0 0 11 16777215
"лба" 259,60 259,60 0 0 "<1 БГ ЛБ" 0 0 11 16777215
"лба" 268,60 268,60 0 0 "<1 БГ ЛБ" 0 0 11 16777215
"лба" 278,00 278,00 0 0 "<1 БГ ЛБ" 0 0 11 16777215
"лба" 284,00 284,00 0 0 "<1 БГ ЛБ" 0 0 11 16777215
"лба" 290,20 290,20 0 0 "<1 БГ ЛБ" 0 0 11 16777215
"лба" 299,40 299,40 0 0 "<1 БГ ЛБ" 0 0 11 16777215
"лба" 309,60 309,60 0 0 "<1 БГ ЛБ" 0 0 11 16777215
"лба" 319,80 319,80 0 0 "<1 БГ ЛБ" 0 0 11 16777215
"лба" 331,60 331,60 0 0 "<1 БГ ЛБ" 0 0 11 16777215
"лба" 341,00 341,00 0 0 "<1 БГ ЛБ" 0 0 11 16777215
"лба" 351,40 351,40 0 0 "<1 БГ ЛБ" 0 0 11 16777215
"лба" 359,40 359,40 0 0 "<1 БГ ЛБ" 0 0 11 16777215
"лба" 370,60 370,60 0 0 "<1 БГ ЛБ" 0 0 11 16777215
"лба" 380,80 380,80 0 0 "<1 БГ ЛБ" 0 0 11 16777215
"лба" 397,80 397,80 0 0 "<1 БГ ЛБ" 0 0 11 16777215
"лба" 415,80 415,80 0 0 "<1 БГ ЛБ" 0 0 11 16777215
"лба" 438,20 438,20 0 0 "<1 БГ ЛБ" 0 0 11 16777215
"лба" 461,00 461,00 0 0 "<1 БГ ЛБ" 0 0 11 16777215
"лба" 485,60 485,60 0 0 "<1 БГ ЛБ" 0 0 11 16777215
"лба" 501,40 501,40 0 0 "<1 БГ ЛБ" 0 0 11 16777215
"лба" 516,80 516,80 0 0 "<1 БГ ЛБ" 0 0 11 16777215
"лба" 531,40 531,40 0 0 "<1 БГ ЛБ" 0 0 11 16777215
"лба" 543,40 543,40 0 0 "<1 БГ ЛБ" 0 0 11 16777215
"лба" 552,40 552,40 0 0 "<1 БГ ЛБ" 0 0 11 16777215
"лба" 559,20 559,20 0 0 "<1 БГ ЛБ" 0 0 11 16777215
"лба" 566,60 566,60 0 0 "<1 БГ ЛБ" 0 0 11 16777215
"лба" 568,90 580,00 0 0 "нет нет нет" 0 0 11 16777215
"лба" 580,00 590,00 0 0 "нет нет нет" 0 0 11 16777215
"лба" 590,00 600,00 0 0 "нет нет нет" 0 0 11 16777215
"лба" 600,00 640,00 0 0 "нет нет нет" 0 0 11 16777215
"лба" 640,00 660,00 0 0 "нет нет нет" 0 0 11 16777215
"лба" 660,00 680,00 0 0 "нет нет нет" 0 0 11 16777215
"лба" 680,20 700,00 0 0 "нет нет нет" 0 0 11 16777215
"сумм_газ" 516,80 516,80 1176749486 0 "Проверка хроматографа" 0 0 10 16777215

# ------------------ ЗНАЧЕНИЯ КРИВЫХ ------------------ #
~ASCII Log Data
# ...
 635.4 1177817674.   -0.028   28.36    8.077    2.096   59.99   35.38  125.87    2.31   62.04   -0.14    1.229    0.6622    0.3133   24.59   13.25    6.27    0.   44.10   14.95   15.43    0.000086    0.000001    0.000035    0.000016    0.000016    0.000018    0.000000    1.16   40.70   18.60   18.60   20.93    0.   44.10  112.0    0.    0.   22.00    2.000   76.00    4.0    5.40    0.00    0.00    0.00    0.    0.    4.60    0.    0.    0.    0.    0.    0.    0.   44.12    4.014  -33.71
 635.6 1177817674.   -0.028   28.36    8.077    2.096   59.99   35.38  125.87    2.31   62.04   -0.14    1.229    0.6622    0.3133   24.59   13.25    6.27    0.   44.10   14.95   15.43    0.000086    0.000001    0.000035    0.000016    0.000016    0.000018    0.000000    1.16   40.70   18.60   18.60   20.93    0.   44.10  112.0    0.    0.   22.00    2.000   76.00    4.0    5.40    0.00    0.00    0.00    0.    0.    4.60    0.    0.    0.    0.    0.    0.    0.   44.12    4.014  -33.71
 635.8 1177817674.   -0.028   28.36    8.077    2.096   59.99   35.38  125.87    2.31   62.04   -0.14    1.229    0.6622    0.3133   24.59   13.25    6.27    0.   44.10   14.95   15.43    0.000086    0.000001    0.000035    0.000016    0.000016    0.000018    0.000000    1.16   40.70   18.60   18.60   20.93    0.   44.10  112.0    0.    0.   22.00    2.000   76.00    4.0    5.40    0.00    0.00    0.00    0.    0.    4.60    0.    0.    0.    0.    0.    0.    0.   44.12    4.014  -33.71
 636.0 1177817674.   -0.028   28.36    8.077    2.096   59.99   35.38  125.87    2.31   62.04   -0.14    1.229    0.6622    0.3133   24.59   13.25    6.27    0.   44.10   14.95   15.43    0.000086    0.000001    0.000035    0.000016    0.000016    0.000018    0.000000    1.16   40.70   18.60   18.60   20.93    0.   44.10  112.0    0.    0.   22.00    2.000   76.00    4.0    5.40    0.00    0.00    0.00    0.    0.    4.60    0.    0.    0.    0.    0.    0.    0.   44.12    4.014  -33.71
 636.2 1177817674.   -0.028   28.36    8.077    2.096   59.99   35.38  125.87    2.31   62.04   -0.14    1.229    0.6622    0.3133   24.59   13.25    6.27    0.   44.10   14.95   15.43    0.000086    0.000001    0.000035    0.000016    0.000016    0.000018    0.000000    1.16   40.70   18.60   18.60   20.93    0.   44.10  112.0    0.    0.   22.00    2.000   76.00    4.0    5.40    0.00    0.00    0.00    0.    0.    4.60    0.    0.    0.    0.    0.    0.    0.   44.12    4.014  -33.71
 636.4 1177817674.   -0.028   28.36    8.077    2.096   59.99   35.38  125.87    2.31   62.04   -0.14    1.229    0.6622    0.3133   24.59   13.25    6.27    0.   44.10   14.95   15.43    0.000086    0.000001    0.000035    0.000016    0.000016    0.000018    0.000000    1.16   40.70   18.60   18.60   20.93    0.   44.10  112.0    0.    0.   22.00    2.000   76.00    4.0    5.40    0.00    0.00    0.00    0.    0.    4.60    0.    0.    0.    0.    0.    0.    0.   44.12    4.014  -33.71
 636.6 1177817674.   -0.028   28.36    8.077    2.096   59.99   35.38  125.87    2.31   62.04   -0.14    1.229    0.6622    0.3133   24.59   13.25    6.27    0.   44.10   14.95   15.43    0.000086    0.000001    0.000035    0.000016    0.000016    0.000018    0.000000    1.16   40.70   18.60   18.60   20.93    0.   44.10  112.0    0.    0.   22.00    2.000   76.00    4.0    5.40    0.00    0.00    0.00    0.    0.    4.60    0.    0.    0.    0.    0.    0.    0.   44.12    4.014  -33.71
 636.8 1177817674.   -0.028   28.36    8.077    2.096   59.99   35.38  125.87    2.31   62.04   -0.14    1.229    0.6622    0.3133   24.59   13.25    6.27    0.   44.10   14.95   15.43    0.000086    0.000001    0.000035    0.000016    0.000016    0.000018    0.000000    1.16   40.70   18.60   18.60   20.93    0.   44.10  112.0    0.    0.   22.00    2.000   76.00    4.0    5.40    0.00    0.00    0.00    0.    0.    4.60    0.    0.    0.    0.    0.    0.    0.   44.12    4.014  -33.71
 637.0 1177817674.   -0.028   28.36    8.077    2.096   59.99   35.38  125.87    2.31   62.04   -0.14    1.229    0.6622    0.3133   24.59   13.25    6.27    0.   44.10   14.95   15.43    0.000086    0.000001    0.000035    0.000016    0.000016    0.000018    0.000000    1.16   40.70   18.60   18.60   20.93    0.   44.10  112.0    0.    0.   22.00    2.000   76.00    4.0    5.40    0.00    0.00    0.00    0.    0.    4.60    0.    0.    0.    0.    0.    0.    0.   44.12    4.014  -33.71
 637.2 1177817674.   -0.028   28.36    8.077    2.096   59.99   35.38  125.87    2.31   62.04   -0.14    1.229    0.6622    0.3133   24.59   13.25    6.27    0.   44.10   14.95   15.43    0.000086    0.000001    0.000035    0.000016    0.000016    0.000018    0.000000    1.16   40.70   18.60   18.60   20.93    0.   44.10  112.0    0.    0.   22.00    2.000   76.00    4.0    5.40    0.00    0.00    0.00    0.    0.    4.60    0.    0.    0.    0.    0.    0.    0.   44.12    4.014  -33.71
 637.4 1177817674.   -0.028   28.36    8.077    2.096   59.99   35.38  125.87    2.31   62.04   -0.14    1.229    0.6622    0.3133   24.59   13.25    6.27    0.   44.10   14.95   15.43    0.000086    0.000001    0.000035    0.000016    0.000016    0.000018    0.000000    1.16   40.70   18.60   18.60   20.93    0.   44.10  112.0    0.    0.   22.00    2.000   76.00    4.0    5.40    0.00    0.00    0.00    0.    0.    4.60    0.    0.    0.    0.    0.    0.    0.   44.12    4.014  -33.71
 637.6 1177817674.   -0.028   28.36    8.077    2.096   59.99   35.38  125.87    2.31   62.04   -0.14    1.229    0.6622    0.3133   24.59   13.25    6.27    0.   44.10   14.95   15.43    0.000086    0.000001    0.000035    0.000016    0.000016    0.000018    0.000000    1.16   40.70   18.60   18.60   20.93    0.   44.10  112.0    0.    0.   22.00    2.000   76.00    4.0    5.40    0.00    0.00    0.00    0.    0.    4.60    0.    0.    0.    0.    0.    0.    0.   44.12    4.014  -33.71
 637.8 1177817674.   -0.028   28.36    8.077    2.096   59.99   35.38  125.87    2.31   62.04   -0.14    1.229    0.6622    0.3133   24.59   13.25    6.27    0.   44.10   14.95   15.43    0.000086    0.000001    0.000035    0.000016    0.000016    0.000018    0.000000    1.16   40.70   18.60   18.60   20.93    0.   44.10  112.0    0.    0.   22.00    2.000   76.00    4.0    5.40    0.00    0.00    0.00    0.    0.    4.60    0.    0.    0.    0.    0.    0.    0.   44.12    4.014  -33.71
 638.0 1177817674.   -0.028   28.36    8.077    2.096   59.99   35.38  125.87    2.31   62.04   -0.14    1.229    0.6622    0.3133   24.59   13.25    6.27    0.   44.10   14.95   15.43    0.000086    0.000001    0.000035    0.000016    0.000016    0.000018    0.000000    1.16   40.70   18.60   18.60   20.93    0.   44.10  112.0    0.    0.   22.00    2.000   76.00    4.0    5.40    0.00    0.00    0.00    0.    0.    4.60    0.    0.    0.    0.    0.    0.    0.   44.12    4.014  -33.71
 638.2 1177817674.   -0.028   28.36    8.077    2.096   59.99   35.38  125.87    2.31   62.04   -0.14    1.229    0.6622    0.3133   24.59   13.25    6.27    0.   44.10   14.95   15.43    0.000086    0.000001    0.000035    0.000016    0.000016    0.000018    0.000000    1.16   40.70   18.60   18.60   20.93    0.   44.10  112.0    0.    0.   22.00    2.000   76.00    4.0    5.40    0.00    0.00    0.00    0.    0.    4.60    0.    0.    0.    0.    0.    0.    0.   44.12    4.014  -33.71
 638.4 1177817674.   -0.028   28.36    8.077    2.096   59.99   35.38  125.87    2.31   62.04   -0.14    1.229    0.6622    0.3133   24.59   13.25    6.27    0.   44.10   14.95   15.43    0.000086    0.000001    0.000035    0.000016    0.000016    0.000018    0.000000    1.16   40.70   18.60   18.60   20.93    0.   44.10  112.0    0.    0.   22.00    2.000   76.00    4.0    5.40    0.00    0.00    0.00    0.    0.    4.60    0.    0.    0.    0.    0.    0.    0.   44.12    4.014  -33.71
 638.6 1177817674.   -0.028   28.36    8.077    2.096   59.99   35.38  125.87    2.31   62.04   -0.14    1.229    0.6622    0.3133   24.59   13.25    6.27    0.   44.10   14.95   15.43    0.000086    0.000001    0.000035    0.000016    0.000016    0.000018    0.000000    1.16   40.70   18.60   18.60   20.93    0.   44.10  112.0    0.    0.   22.00    2.000   76.00    4.0    5.40    0.00    0.00    0.00    0.    0.    4.60    0.    0.    0.    0.    0.    0.    0.   44.12    4.014  -33.71
