# ------- LAS файл, созданный программой "GeoData" ------- #

~Version  information
# ---------------- ИНФОРМАЦИЯ О LAS-ФАЙЛЕ ---------------- #
VERS.                               1.20: CWLS log ASCII Standart - VERSION 1.20
WRAP.                                 NO: One line per depth step

~Well
# ----------------- ЗНАЧЕНИЯ ПАРАМЕТРОВ ------------------ #
NULL.                          -32768.00: Нулевое значение
WELL.                               WELL: 305
FLD .                              FIELD: Луза
STRT.M                              0,20: First depth
STOP.M                           1060,60: Last depth
STEP.M                              0.20: Depth increment
DATE.                           LOG_DATE: 
SRVC.                    SERVICE_COMPANY: 
COMP.                            COMPANY: 
CUST.                           CUSTOMER: 
CNTY.                            COUNTRY: 
METD.                             METHOD: 
DPST.                            DEPOSIT: 
STTP.                        тип_станции: 
GTIP.                         партия_ГТИ: 
CHTP.                   тип_хроматографа: 
GRMT.                   начальник_отряда: 
BOSS.                   начальник_партии: 
DRLM.                        вид_бурения: 
PERS.                          операторы: 
OTR .                       номер_отряда: 
PRJD.M                   проектный_забой: 0,0
ALTR.M                  альтитуда_ротора: 0,0
WDIM.MM                 диаметр_скважины: 0,0
KDIM.MM               диаметр_кондуктора: 0,0
BKND.                  башмак_кондуктора: 0,0
KUST.                               Куст: 

~Curve
# ------------------- НАЗВАНИЯ КРИВЫХ -------------------- #
DEPT.м                                  : Глубина
TIME.                                   : Время
тальблок.м                              : Положение тальблока
вес_на_крюке.т                          : Вес на крюке
нагрузка.т.                             : Нагрузка на долото
момент_ротора.кН*м                      : Крутящий момент ротора
давление_на_входе.атм.                  : Давление ПЖ на входе
расход_на_входе.л/с                     : Расход ПЖ на входе
обороты_ротора.об/мин                   : Обороты ротора
температура_на_выходе.°С                : Температура на выходе
ходы_насоса1.ход/мин                    : Ходы насоса-1
ходы_насоса2.ход/мин                    : Ходы насоса-2
уровень_в_емкости.м                     : Уровень-1
уровень_в_емкости2.м                    : Уровень-2
уровень_в_емкости3.м                    : Уровень-3
объем_в_емкости1.м3                     : Объём-1
объем_в_емкости2.м3                     : Объём-2
объем_в_емкости3.м3                     : Объём-3
глубина_над_забоем.м                    : Глубина над забоем
объем_актив_емкости.м3                  : Объем ПЖ в активн.ёмкостях
скорость_механическая.м/ч               : Скорость механическая
скорость_бурения.м/ч                    : Скорость бурения
сумм_газ.%                              : Сумма газов хром.
метан_абс.%                             : Метан абс.
этан_абс.%                              : Этан абс.
пропан_абс.%                            : Пропан абс.
бутан_абс.%                             : Бутан абс.
пентан_абс.%                            : Пентан абс.
гексан_абс.%                            : Гексан абс.
метан_отн.%                             : Метан отн.
этан_отн.%                              : Этан отн.
пропан_отн.%                            : Пропан отн.
бутан_отн.%                             : Бутан отн.
пентан_отн.%                            : Пентан отн.
гексан_отн.%                            : Гексан отн.
объем_емкости.м3                        : Объем ПЖ в емкостях
объем_раствора.м3                       : Общий V раствора
PLOT.г/см3                              : Плот.пор.
POR .                                   : Пористость
CLCT.%                                  : Кальцит
DLMT.%                                  : Доломит
NO  .%                                  : Н.О.
LITO.                                   : Литология
SHL2.                                   : Шлам-2
SHL3.                                   : Шлам-3
SHL4.                                   : Шлам-4
SHL5.                                   : Шлам-5
SHL6.                                   : Шлам-6
nfst.                                   : Нефтенасыщенность
shl1.                                   : shl1
F1  .%                                  : Ф1
F2  .%                                  : Ф2
F3  .%                                  : Ф3
F4  .%                                  : Ф4
F5  .%                                  : Ф5
F6  .%                                  : Ф6
F7  .%                                  : Ф7
расход_на_выходе.%                      : Расход ПЖ на выходе
дмк .мин/м                              : ДМК
параметр1.атм                           : Параметр - 1

~Other Information
# --------------------- ТЕКСТОВЫЕ ДАННЫЕ --------------------- #
"лба" 22,40 22,40 0 0 "<1 БГ ЛБ" 0 0 11 16777215
"лба" 39,60 39,60 0 0 "<1 БГ ЛБ" 0 0 11 16777215
"лба" 58,40 58,40 0 0 "<1 БГ ЛБ" 0 0 11 16777215
"лба" 78,80 78,80 0 0 "<1 БГ ЛБ" 0 0 11 16777215
"лба" 99,20 99,20 0 0 "<1 БГ ЛБ" 0 0 11 16777215
"лба" 114,80 114,80 0 0 "<1 БГ ЛБ" 0 0 11 16777215
"лба" 131,00 131,00 0 0 "<1 БГ ЛБ" 0 0 11 16777215
"лба" 146,40 146,40 0 0 "<1 БГ ЛБ" 0 0 11 16777215
"лба" 163,20 163,20 0 0 "<1 БГ ЛБ" 0 0 11 16777215
"лба" 181,20 181,20 0 0 "<1 БГ ЛБ" 0 0 11 16777215
"лба" 197,20 197,20 0 0 "<1 БГ ЛБ" 0 0 11 16777215
"лба" 211,00 211,00 0 0 "<1 БГ ЛБ" 0 0 11 16777215
"лба" 221,80 221,80 0 0 "<1 БГ ЛБ" 0 0 11 16777215
"лба" 234,00 234,00 0 0 "<1 БГ ЛБ" 0 0 11 16777215
"лба" 246,80 246,80 0 0 "<1 БГ ЛБ" 0 0 11 16777215
"лба" 259,60 259,60 0 0 "<1 БГ ЛБ" 0 0 11 16777215
"лба" 268,60 268,60 0 0 "<1 БГ ЛБ" 0 0 11 16777215
"лба" 278,00 278,00 0 0 "<1 БГ ЛБ" 0 0 11 16777215
"лба" 284,00 284,00 0 0 "<1 БГ ЛБ" 0 0 11 16777215
"лба" 290,20 290,20 0 0 "<1 БГ ЛБ" 0 0 11 16777215
"лба" 299,40 299,40 0 0 "<1 БГ ЛБ" 0 0 11 16777215
"лба" 309,60 309,60 0 0 "<1 БГ ЛБ" 0 0 11 16777215
"лба" 319,80 319,80 0 0 "<1 БГ ЛБ" 0 0 11 16777215
"лба" 331,60 331,60 0 0 "<1 БГ ЛБ" 0 0 11 16777215
"лба" 341,00 341,00 0 0 "<1 БГ ЛБ" 0 0 11 16777215
"лба" 351,40 351,40 0 0 "<1 БГ ЛБ" 0 0 11 16777215
"лба" 359,40 359,40 0 0 "<1 БГ ЛБ" 0 0 11 16777215
"лба" 370,60 370,60 0 0 "<1 БГ ЛБ" 0 0 11 16777215
"лба" 380,80 380,80 0 0 "<1 БГ ЛБ" 0 0 11 16777215
"лба" 397,80 397,80 0 0 "<1 БГ ЛБ" 0 0 11 16777215
"лба" 415,80 415,80 0 0 "<1 БГ ЛБ" 0 0 11 16777215
"лба" 438,20 438,20 0 0 "<1 БГ ЛБ" 0 0 11 16777215
"лба" 461,00 461,00 0 0 "<1 БГ ЛБ" 0 0 11 16777215
"лба" 485,60 485,60 0 0 "<1 БГ ЛБ" 0 0 11 16777215
"лба" 501,40 501,40 0 0 "<1 БГ ЛБ" 0 0 11 16777215
"лба" 516,80 516,80 0 0 "<1 БГ ЛБ" 0 0 11 16777215
"лба" 531,40 531,40 0 0 "<1 БГ ЛБ" 0 0 11 16777215
"лба" 543,40 543,40 0 0 "<1 БГ ЛБ" 0 0 11 16777215
"лба" 552,40 552,40 0 0 "<1 БГ ЛБ" 0 0 11 16777215
"лба" 559,20 559,20 0 0 "<1 БГ ЛБ" 0 0 11 16777215
"лба" 566,60 566,60 0 0 "<1 БГ ЛБ" 0 0 11 16777215
"лба" 568,90 580,00 0 0 "нет нет нет" 0 0 11 16777215
"лба" 580,00 590,00 0 0 "нет нет нет" 0 0 11 16777215
"лба" 590,00 600,00 0 0 "нет нет нет" 0 0 11 16777215
"лба" 600,00 640,00 0 0 "нет нет нет" 0 0 11 16777215
"лба" 640,00 660,00 0 0 "нет нет нет" 0 0 11 16777215
"лба" 660,00 680,00 0 0 "нет нет нет" 0 0 11 16777215
"лба" 680,20 700,00 0 0 "нет нет нет" 0 0 11 16777215
"сумм_газ" 516,80 516,80 1176749486 0 "Проверка хроматографа" 0 0 10 16777215

# ------------------ ЗНАЧЕНИЯ КРИВЫХ ------------------ #
~ASCII Log Data
# ...
 492.6 1176738244.    6.074   23.09   12.536    1.720   53.00   32.14   73.32   25.19   58.96    0.09    1.271    0.6578    0.3859   25.42   13.16    7.72    0.   46.30   17.13   15.05    0.000322    0.000182    0.000058    0.000049    0.000018    0.000015    0.000000   56.52   18.01   15.22    5.59    4.66    0.   46.30   98.8    0.    0.   15.00    0.000   85.00    4.0    5.10   10.10    0.00    0.00    0.    0.    4.80    0.    0.    0.    0.    0.    0.    0.   37.79    3.503  -50.03
 492.8 1176738286.    5.875   23.74   12.042    1.702   52.92   32.11   73.56   25.10   58.67    0.10    1.274    0.6579    0.3859   25.47   13.16    7.72    0.   46.34   17.13   16.90    0.000310    0.000168    0.000055    0.000056    0.000017    0.000014    0.000000   54.19   17.74   18.06    5.48    4.52    0.   46.34   98.9    0.    0.   15.00    0.000   85.00    4.0    5.10   10.10    0.00    0.00    0.    0.    4.80    0.    0.    0.    0.    0.    0.    0.   37.77    3.503  -50.04
 493.0 1176738326.    5.675   23.18   12.412    1.731   52.98   32.10   73.34   24.99   58.96    0.10    1.283    0.6577    0.3858   25.67   13.15    7.72    0.   46.54   17.99   18.65    0.000326    0.000201    0.000043    0.000047    0.000016    0.000019    0.000000   61.66   13.19   14.42    4.91    5.83    0.   46.54   99.1    0.    0.   15.00    0.000   85.00    4.0    5.10   10.10    0.00    0.00    0.    0.    4.80    0.    0.    0.    0.    0.    0.    0.   37.79    3.336  -50.05
 493.2 1176738377.    5.482   22.94   12.803    1.849   53.22   32.00   72.56   24.90   59.01    0.10    1.283    0.6579    0.3859   25.67   13.16    7.72    0.   46.54   14.11   15.28    0.000332    0.000213    0.000040    0.000043    0.000016    0.000020    0.000000   64.16   12.05   12.95    4.82    6.02    0.   46.54   99.1    0.    0.   15.00    0.000   85.00    4.0    5.10   10.10    0.00    0.00    0.    0.    4.80    0.    0.    0.    0.    0.    0.    0.   37.83    4.253  -50.03
 493.4 1176738429.    5.270   22.67   13.053    1.797   53.13   32.22   72.94   24.76   58.75    0.10    1.283    0.6577    0.3859   25.67   13.15    7.72    0.   46.54   13.84   14.52    0.000344    0.000234    0.000052    0.000017    0.000019    0.000022    0.000000   68.02   15.12    4.94    5.52    6.40    0.   46.54   99.2    0.    0.   15.00    0.000   85.00    4.0    5.10   10.10    0.00    0.00    0.    0.    4.80    0.    0.    0.    0.    0.    0.    0.   37.82    4.337  -50.03
 493.6 1176738478.    5.079   22.87   12.756    1.696   53.39   32.11   72.87   24.61   58.59    0.10    1.283    0.6579    0.3859   25.67   13.16    7.72    0.   46.54   15.25   15.13    0.000305    0.000202    0.000046    0.000018    0.000019    0.000020    0.000000   66.23   15.08    5.90    6.23    6.56    0.   46.54   99.2    0.    0.   15.00    0.000   85.00    4.0    5.10   10.10    0.00    0.00    0.    0.    4.80    0.    0.    0.    0.    0.    0.    0.   37.80    3.935  -50.06
 493.8 1176738526.    4.861   23.18   12.481    1.715   53.05   32.08   73.21   24.50   58.35    0.10    1.283    0.6578    0.3859   25.67   13.16    7.72    0.   46.54   14.41   14.93    0.000256    0.000162    0.000039    0.000020    0.000019    0.000016    0.000000   63.28   15.23    7.81    7.42    6.25    0.   46.54   99.2    0.    0.   15.00    0.000   85.00    4.0    5.10   10.10    0.00    0.00    0.    0.    4.80    0.    0.    0.    0.    0.    0.    0.   37.55    4.163  -50.06
 494.0 1176738566.    4.678   23.59   12.112    1.665   53.32   32.16   73.15   24.40   58.78    0.10    1.283    0.6577    0.3859   25.67   13.15    7.72    0.   46.54   18.68   16.05    0.000302    0.000178    0.000034    0.000021    0.000036    0.000033    0.000000   58.94   11.26    6.95   11.92   10.93    0.   46.54   99.2    0.    0.   15.00    0.000   85.00    4.0    5.10   10.10    0.00    0.00    0.    0.    4.80    0.    0.    0.    0.    0.    0.    0.   37.74    3.212  -50.04
 494.2 1176738602.    4.470   23.25   12.520    1.621   53.34   32.10   72.64   24.27   58.90    0.10    1.283    0.6577    0.3859   25.66   13.15    7.72    0.   46.54   19.98   18.20    0.000317    0.000183    0.000032    0.000022    0.000042    0.000038    0.000000   57.73   10.09    6.94   13.25   11.99    0.   46.54   99.3    0.    0.   15.00    0.000   85.00    4.0    5.10   10.10    0.00    0.00    0.    0.    4.80    0.    0.    0.    0.    0.    0.    0.   37.80    3.002  -50.02
 494.4 1176738655.    4.270   23.31   11.902    1.417   53.90   32.15   73.11   24.15   58.62    0.10    1.285    0.6577    0.3858   25.69   13.15    7.72    0.   46.56   13.05   17.31    0.000323    0.000177    0.000030    0.000041    0.000023    0.000052    0.000000   54.80    9.29   12.69    7.12   16.10    0.   46.56   99.3    0.    0.   15.00    0.000   85.00    4.0    5.10   10.10    0.00    0.00    0.    0.    4.80    0.    0.    0.    0.    0.    0.    0.   37.82    4.597  -50.03
 494.6 1176738725.    4.084   23.21   12.620    1.564   53.70   32.11   73.39   24.03   58.43    0.09    1.285    0.6578    0.3859   25.70   13.16    7.72    0.   46.57   10.67   11.22    0.000320    0.000177    0.000035    0.000041    0.000017    0.000050    0.000000   55.31   10.94   12.81    5.31   15.62    0.   46.57   99.3    0.    0.   15.00    0.000   85.00    4.0    5.10   10.10    0.00    0.00    0.    0.    4.80    0.    0.    0.    0.    0.    0.    0.   37.81    5.622  -50.02
 494.8 1176738784.    3.868   23.68   11.992    1.514   53.80   32.23   72.76   23.93   58.87    0.09    1.285    0.6579    0.3859   25.69   13.16    7.72    0.   46.57   11.73   12.38    0.000308    0.000179    0.000046    0.000029    0.000016    0.000038    0.000000   58.12   14.94    9.42    5.19   12.34    0.   46.57   99.4    0.    0.   15.00    0.000   85.00    4.0    5.10   10.10    0.00    0.00    0.    0.    4.80    0.    0.    0.    0.    0.    0.    0.   37.80    5.117  -50.00
 495.0 1176738832.    3.673   24.90   10.511    1.404   53.85   32.29   72.72   23.85   59.20    0.09    1.283    0.6575    0.3859   25.66   13.15    7.72    0.   46.53   14.99   13.89    0.000280    0.000175    0.000049    0.000025    0.000013    0.000018    0.000000   62.50   17.50    8.93    4.64    6.43    0.   46.53   99.3    0.    0.   15.00    0.000   85.00    4.0    5.10   10.10    0.00    0.00    0.    0.    4.80    0.    0.    0.    0.    0.    0.    0.   37.79    4.003  -50.02
 495.2 1176738873.    3.473   24.01   11.673    1.696   53.79   32.25   72.26   23.82   58.98    0.09    1.283    0.6577    0.3859   25.66   13.15    7.72    0.   46.54   17.99   15.18    0.000287    0.000181    0.000044    0.000026    0.000020    0.000016    0.000000   63.07   15.33    9.06    6.97    5.57    0.   46.54   99.4    0.    0.   15.00    0.000   85.00    4.0    5.10   10.10    0.00    0.00    0.    0.    4.80    0.    0.    0.    0.    0.    0.    0.   37.80    3.336  -50.02
 495.4 1176738922.    3.276   23.62   12.332    1.664   54.05   32.33   73.11   23.72   58.60    0.10    1.283    0.6576    0.3858   25.67   13.15    7.72    0.   46.54   14.68   15.68    0.000299    0.000191    0.000037    0.000027    0.000030    0.000014    0.000000   63.88   12.37    9.03   10.03    4.68    0.   46.54   99.4    0.    0.   15.00    0.000   85.00    4.0    5.10   10.10    0.00    0.00    0.    0.    4.80    0.    0.    0.    0.    0.    0.    0.   37.82    4.086  -50.04
 495.6 1176738969.    3.070   24.72   11.059    1.462   53.76   31.93   73.24   23.65   58.33    0.10    1.277    0.6578    0.3858   25.54   13.16    7.72    0.   46.41   15.31   15.72    0.000319    0.000182    0.000055    0.000020    0.000041    0.000021    0.000000   57.05   17.24    6.27   12.85    6.58    0.   46.41   99.3    0.    0.   15.00    0.000   85.00    4.0    5.10   10.10    0.00    0.00    0.    0.    4.80    0.    0.    0.    0.    0.    0.    0.   37.86    3.920  -49.97
 495.8 1176739017.    2.874   24.25   11.505    1.540   54.07   32.32   72.50   23.59   58.20    0.10    1.271    0.6577    0.3859   25.42   13.15    7.72    0.   46.29   14.99   14.51    0.000326    0.000177    0.000063    0.000016    0.000046    0.000024    0.000000   54.29   19.33    4.91   14.11    7.36    0.   46.29   99.2    0.    0.   15.00    0.000   85.00    4.0    5.10   10.10    0.00    0.00    0.    0.    4.80    0.    0.    0.    0.    0.    0.    0.   37.82    4.003  -50.05
