# ------- LAS файл, созданный программой "GeoData" ------- #

~Version  information
# ---------------- ИНФОРМАЦИЯ О LAS-ФАЙЛЕ ---------------- #
VERS.                               1.20: CWLS log ASCII Standart - VERSION 1.20
WRAP.                                 NO: One line per depth step

~Well
# ----------------- ЗНАЧЕНИЯ ПАРАМЕТРОВ ------------------ #
NULL.                          -32768.00: Нулевое значение
WELL.                               WELL: 305
FLD .                              FIELD: Луза
STRT.M                              0,20: First depth
STOP.M                           1060,60: Last depth
STEP.M                              0.20: Depth increment
DATE.                           LOG_DATE: 
SRVC.                    SERVICE_COMPANY: 
COMP.                            COMPANY: 
CUST.                           CUSTOMER: 
CNTY.                            COUNTRY: 
METD.                             METHOD: 
DPST.                            DEPOSIT: 
STTP.                        тип_станции: 
GTIP.                         партия_ГТИ: 
CHTP.                   тип_хроматографа: 
GRMT.                   начальник_отряда: 
BOSS.                   начальник_партии: 
DRLM.                        вид_бурения: 
PERS.                          операторы: 
OTR .                       номер_отряда: 
PRJD.M                   проектный_забой: 0,0
ALTR.M                  альтитуда_ротора: 0,0
WDIM.MM                 диаметр_скважины: 0,0
KDIM.MM               диаметр_кондуктора: 0,0
BKND.                  башмак_кондуктора: 0,0
KUST.                               Куст: 

~Curve
# ------------------- НАЗВАНИЯ КРИВЫХ -------------------- #
DEPT.м                                  : Глубина
TIME.                                   : Время
тальблок.м                              : Положение тальблока
вес_на_крюке.т                          : Вес на крюке
нагрузка.т.                             : Нагрузка на долото
момент_ротора.кН*м                      : Крутящий момент ротора
давление_на_входе.атм.                  : Давление ПЖ на входе
расход_на_входе.л/с                     : Расход ПЖ на входе
обороты_ротора.об/мин                   : Обороты ротора
температура_на_выходе.°С                : Температура на выходе
ходы_насоса1.ход/мин                    : Ходы насоса-1
ходы_насоса2.ход/мин                    : Ходы насоса-2
уровень_в_емкости.м                     : Уровень-1
уровень_в_емкости2.м                    : Уровень-2
уровень_в_емкости3.м                    : Уровень-3
объем_в_емкости1.м3                     : Объём-1
объем_в_емкости2.м3                     : Объём-2
объем_в_емкости3.м3                     : Объём-3
глубина_над_забоем.м                    : Глубина над забоем
объем_актив_емкости.м3                  : Объем ПЖ в активн.ёмкостях
скорость_механическая.м/ч               : Скорость механическая
скорость_бурения.м/ч                    : Скорость бурения
сумм_газ.%                              : Сумма газов хром.
метан_абс.%                             : Метан абс.
этан_абс.%                              : Этан абс.
пропан_абс.%                            : Пропан абс.
бутан_абс.%                             : Бутан абс.
пентан_абс.%                            : Пентан абс.
гексан_абс.%                            : Гексан абс.
метан_отн.%                             : Метан отн.
этан_отн.%                              : Этан отн.
пропан_отн.%                            : Пропан отн.
бутан_отн.%                             : Бутан отн.
пентан_отн.%                            : Пентан отн.
гексан_отн.%                            : Гексан отн.
объем_емкости.м3                        : Объем ПЖ в емкостях
объем_раствора.м3                       : Общий V раствора
PLOT.г/см3                              : Плот.пор.
POR .                                   : Пористость
CLCT.%                                  : Кальцит
DLMT.%                                  : Доломит
NO  .%                                  : Н.О.
LITO.                                   : Литология
SHL2.                                   : Шлам-2
SHL3.                                   : Шлам-3
SHL4.                                   : Шлам-4
SHL5.                                   : Шлам-5
SHL6.                                   : Шлам-6
nfst.                                   : Нефтенасыщенность
shl1.                                   : shl1
F1  .%                                  : Ф1
F2  .%                                  : Ф2
F3  .%                                  : Ф3
F4  .%                                  : Ф4
F5  .%                                  : Ф5
F6  .%                                  : Ф6
F7  .%                                  : Ф7
расход_на_выходе.%                      : Расход ПЖ на выходе
дмк .мин/м                              : ДМК
параметр1.атм                           : Параметр - 1

~Other Information
# --------------------- ТЕКСТОВЫЕ ДАННЫЕ --------------------- #
"лба" 22,40 22,40 0 0 "<1 БГ ЛБ" 0 0 11 16777215
"лба" 39,60 39,60 0 0 "<1 БГ ЛБ" 0 0 11 16777215
"лба" 58,40 58,40 0 0 "<1 БГ ЛБ" 0 0 11 16777215
"лба" 78,80 78,80 0 0 "<1 БГ ЛБ" 0 0 11 16777215
"лба" 99,20 99,20 0 0 "<1 БГ ЛБ" 0 0 11 16777215
"лба" 114,80 114,80 0 0 "<1 БГ ЛБ" 0 0 11 16777215
"лба" 131,00 131,00 0 0 "<1 БГ ЛБ" 0 0 11 16777215
"лба" 146,40 146,40 0 0 "<1 БГ ЛБ" 0 0 11 16777215
"лба" 163,20 163,20 0 0 "<1 БГ ЛБ" 0 0 11 16777215
"лба" 181,20 181,20 0 0 "<1 БГ ЛБ" 0 0 11 16777215
"лба" 197,20 197,20 0 0 "<1 БГ ЛБ" 0 0 11 16777215
"лба" 211,00 211,00 0 0 "<1 БГ ЛБ" 0 0 11 16777215
"лба" 221,80 221,80 0 0 "<1 БГ ЛБ" 0 0 11 16777215
"лба" 234,00 234,00 0 0 "<1 БГ ЛБ" 0 0 11 16777215
"лба" 246,80 246,80 0 0 "<1 БГ ЛБ" 0 0 11 16777215
"лба" 259,60 259,60 0 0 "<1 БГ ЛБ" 0 0 11 16777215
"лба" 268,60 268,60 0 0 "<1 БГ ЛБ" 0 0 11 16777215
"лба" 278,00 278,00 0 0 "<1 БГ ЛБ" 0 0 11 16777215
"лба" 284,00 284,00 0 0 "<1 БГ ЛБ" 0 0 11 16777215
"лба" 290,20 290,20 0 0 "<1 БГ ЛБ" 0 0 11 16777215
"лба" 299,40 299,40 0 0 "<1 БГ ЛБ" 0 0 11 16777215
"лба" 309,60 309,60 0 0 "<1 БГ ЛБ" 0 0 11 16777215
"лба" 319,80 319,80 0 0 "<1 БГ ЛБ" 0 0 11 16777215
"лба" 331,60 331,60 0 0 "<1 БГ ЛБ" 0 0 11 16777215
"лба" 341,00 341,00 0 0 "<1 БГ ЛБ" 0 0 11 16777215
"лба" 351,40 351,40 0 0 "<1 БГ ЛБ" 0 0 11 16777215
"лба" 359,40 359,40 0 0 "<1 БГ ЛБ" 0 0 11 16777215
"лба" 370,60 370,60 0 0 "<1 БГ ЛБ" 0 0 11 16777215
"лба" 380,80 380,80 0 0 "<1 БГ ЛБ" 0 0 11 16777215
"лба" 397,80 397,80 0 0 "<1 БГ ЛБ" 0 0 11 16777215
"лба" 415,80 415,80 0 0 "<1 БГ ЛБ" 0 0 11 16777215
"лба" 438,20 438,20 0 0 "<1 БГ ЛБ" 0 0 11 16777215
"лба" 461,00 461,00 0 0 "<1 БГ ЛБ" 0 0 11 16777215
"лба" 485,60 485,60 0 0 "<1 БГ ЛБ" 0 0 11 16777215
"лба" 501,40 501,40 0 0 "<1 БГ ЛБ" 0 0 11 16777215
"лба" 516,80 516,80 0 0 "<1 БГ ЛБ" 0 0 11 16777215
"лба" 531,40 531,40 0 0 "<1 БГ ЛБ" 0 0 11 16777215
"лба" 543,40 543,40 0 0 "<1 БГ ЛБ" 0 0 11 16777215
"лба" 552,40 552,40 0 0 "<1 БГ ЛБ" 0 0 11 16777215
"лба" 559,20 559,20 0 0 "<1 БГ ЛБ" 0 0 11 16777215
"лба" 566,60 566,60 0 0 "<1 БГ ЛБ" 0 0 11 16777215
"лба" 568,90 580,00 0 0 "нет нет нет" 0 0 11 16777215
"лба" 580,00 590,00 0 0 "нет нет нет" 0 0 11 16777215
"лба" 590,00 600,00 0 0 "нет нет нет" 0 0 11 16777215
"лба" 600,00 640,00 0 0 "нет нет нет" 0 0 11 16777215
"лба" 640,00 660,00 0 0 "нет нет нет" 0 0 11 16777215
"лба" 660,00 680,00 0 0 "нет нет нет" 0 0 11 16777215
"лба" 680,20 700,00 0 0 "нет нет нет" 0 0 11 16777215
"сумм_газ" 516,80 516,80 1176749486 0 "Проверка хроматографа" 0 0 10 16777215

# ------------------ ЗНАЧЕНИЯ КРИВЫХ ------------------ #
~ASCII Log Data
# ...
 774.6 1177924147.    6.718   37.58   10.318    2.730   57.38   34.91   85.60   -5.18   60.19   -2.35    0.838    1.6228    1.2497   16.77   32.46   24.99    0.   74.22   18.27   12.41    0.000093    0.000011    0.000029    0.000009    0.000016    0.000028    0.000000   11.83   31.18    9.68   17.20   30.11    0.   74.22  161.1    0.    0.    0.00    0.000    0.00    0.0    0.00    0.00    0.00    0.00    0.    0.    0.00    0.    0.    0.    0.    0.    0.    0.   79.48    3.285  -34.30
 774.8 1177924187.    6.440   38.88    9.868    2.644   58.07   35.23    0.20   -5.16   60.88   -2.34    0.864    1.6230    1.2496   17.27   32.46   24.99    0.   74.72   18.01    9.76    0.000098    0.000016    0.000041    0.000010    0.000014    0.000017    0.000000   16.33   41.84   10.20   14.29   17.35    0.   74.72  161.7    0.    0.    0.00    0.000    0.00    0.0    0.00    0.00    0.00    0.00    0.    0.    0.00    0.    0.    0.    0.    0.    0.    0.   95.21    3.331  -34.35
 775.0 1177924223.    6.232   37.53   10.613    2.633   58.13   35.22    0.20   -5.12   61.04   -2.35    0.870    1.6231    1.2499   17.39   32.46   25.00    0.   74.85   21.49   19.46    0.000097    0.000015    0.000041    0.000010    0.000014    0.000017    0.000000   15.46   42.27   10.31   14.43   17.53    0.   74.85  161.8    0.    0.    0.00    0.000    0.00    0.0    0.00    0.00    0.00    0.00    0.    0.    0.00    0.    0.    0.    0.    0.    0.    0.   92.01    2.792  -34.57
 775.2 1177924258.    6.041   38.13   10.190    2.762   58.24   34.82    0.20   -5.04   61.02   -2.34    0.876    1.6227    1.2496   17.53   32.45   24.99    0.   74.98   22.32   20.53    0.000080    0.000007    0.000036    0.000009    0.000014    0.000014    0.000000    8.75   45.00   11.25   17.50   17.50    0.   74.98  162.0    0.    0.    0.00    0.000    0.00    0.0    0.00    0.00    0.00    0.00    0.    0.    0.00    0.    0.    0.    0.    0.    0.    0.   91.58    2.689  -34.84
 775.4 1177924289.    5.829   36.91   11.378    2.846   58.05   34.64    0.20   -5.07   61.04   -2.34    0.877    1.6228    1.2498   17.54   32.46   25.00    0.   74.99   22.48   22.01    0.000080    0.000007    0.000036    0.000009    0.000014    0.000014    0.000000    8.75   45.00   11.25   17.50   17.50    0.   74.99  162.0    0.    0.    0.00    0.000    0.00    0.0    0.00    0.00    0.00    0.00    0.    0.    0.00    0.    0.    0.    0.    0.    0.    0.   90.75    2.669  -34.32
 775.6 1177924322.    5.631   35.78   12.310    2.733   57.77   34.74    0.20   -5.09   60.94   -2.33    0.882    1.6230    1.2499   17.64   32.46   25.00    0.   75.10   22.83   23.72    0.000085    0.000003    0.000034    0.000010    0.000016    0.000022    0.000000    3.53   40.00   11.76   18.82   25.88    0.   75.10  162.1    0.    0.    0.00    0.000    0.00    0.0    0.00    0.00    0.00    0.00    0.    0.    0.00    0.    0.    0.    0.    0.    0.    0.   89.20    2.628  -34.63
 775.8 1177924354.    5.436   36.81   12.066    2.706   58.22   34.59    0.20   -5.11   60.95   -2.34    0.886    1.6232    1.2499   17.71   32.46   25.00    0.   75.17   22.83   22.95    0.000088    0.000001    0.000033    0.000010    0.000018    0.000026    0.000000    1.14   37.50   11.36   20.45   29.55    0.   75.17  162.2    0.    0.    0.00    0.000    0.00    0.0    0.00    0.00    0.00    0.00    0.    0.    0.00    0.    0.    0.    0.    0.    0.    0.   87.62    2.628  -34.75
 776.0 1177924385.    5.237   37.18   11.257    2.731   57.89   34.67    0.20   -5.10   61.06   -2.34    0.885    1.6231    1.2500   17.70   32.46   25.00    0.   75.16   23.42   23.35    0.000088    0.000001    0.000034    0.000010    0.000018    0.000025    0.000000    1.14   38.64   11.36   20.45   28.41    0.   75.16  162.2    0.    0.    0.00    0.000    0.00    0.0    0.00    0.00    0.00    0.00    0.    0.    0.00    0.    0.    0.    0.    0.    0.    0.   86.15    2.562  -34.60
 776.2 1177924435.    5.037   36.73   11.937    2.866   58.22   34.62    0.21   -5.07   60.95   -2.33    0.887    1.6229    1.2498   17.74   32.46   25.00    0.   75.19   15.22   20.75    0.000087    0.000001    0.000037    0.000009    0.000023    0.000017    0.000000    1.15   42.53   10.34   26.44   19.54    0.   75.19  162.3    0.    0.    0.00    0.000    0.00    0.0    0.00    0.00    0.00    0.00    0.    0.    0.00    0.    0.    0.    0.    0.    0.    0.   84.34    3.942  -34.39
 776.4 1177924486.    4.833   35.89   11.920    2.880   57.83   34.53    0.20   -5.04   60.91   -2.34    0.888    1.6229    1.2413   17.76   32.46   24.84    0.   75.06   14.05   14.56    0.000098    0.000001    0.000045    0.000009    0.000022    0.000021    0.000000    1.02   45.92    9.18   22.45   21.43    0.   75.06  162.2    0.    0.    0.00    0.000    0.00    0.0    0.00    0.00    0.00    0.00    0.    0.    0.00    0.    0.    0.    0.    0.    0.    0.   82.02    4.270  -34.13
 776.6 1177924533.    4.644   37.22   11.111    2.725   58.03   34.56    0.20   -4.98   60.95   -2.33    0.888    1.6231    1.2156   17.76   32.46   24.32    0.   74.55   15.88   14.16    0.000110    0.000001    0.000053    0.000008    0.000022    0.000026    0.000000    0.91   48.18    7.27   20.00   23.64    0.   74.55  161.7    0.    0.    0.00    0.000    0.00    0.0    0.00    0.00    0.00    0.00    0.    0.    0.00    0.    0.    0.    0.    0.    0.    0.   80.97    3.777  -34.61
 776.8 1177924592.    4.438   36.68   11.764    2.731   58.20   34.52    0.20   -4.91   61.08   -2.33    0.888    1.6234    1.2140   17.76   32.47   24.28    0.   74.51   12.38   14.03    0.000073    0.000001    0.000027    0.000010    0.000017    0.000018    0.000000    1.37   36.99   13.70   23.29   24.66    0.   74.51  161.7    0.    0.    0.00    0.000    0.00    0.0    0.00    0.00    0.00    0.00    0.    0.    0.00    0.    0.    0.    0.    0.    0.    0.   79.51    4.845  -34.82
 777.0 1177924643.    4.237   36.44   11.835    2.784   58.38   34.51    0.20   -4.89   61.18   -2.34    0.889    1.6231    1.2141   17.78   32.46   24.28    0.   74.52   14.05   13.75    0.000082    0.000001    0.000031    0.000016    0.000016    0.000018    0.000000    1.22   37.80   19.51   19.51   21.95    0.   74.52  161.7    0.    0.    0.00    0.000    0.00    0.0    0.00    0.00    0.00    0.00    0.    0.    0.00    0.    0.    0.    0.    0.    0.    0.   78.72    4.270  -34.68
 777.2 1177924695.    4.039   37.21   11.094    2.799   58.18   34.46    0.20   -4.79   61.14   -2.33    0.894    1.6228    1.2139   17.88   32.46   24.28    0.   74.62   14.61   14.93    0.000101    0.000001    0.000041    0.000023    0.000017    0.000019    0.000000    0.99   40.59   22.77   16.83   18.81    0.   74.62  161.8    0.    0.    0.00    0.000    0.00    0.0    0.00    0.00    0.00    0.00    0.    0.    0.00    0.    0.    0.    0.    0.    0.    0.   79.28    4.106  -34.37
 777.4 1177924737.    3.830   38.21   10.242    2.742   57.61   34.61    0.20   -4.72   61.02   -2.33    0.900    1.6231    1.2139   18.01   32.46   24.28    0.   74.75   17.14   15.33    0.000100    0.000001    0.000036    0.000015    0.000018    0.000030    0.000000    1.00   36.00   15.00   18.00   30.00    0.   74.75  162.0    0.    0.    0.00    0.000    0.00    0.0    0.00    0.00    0.00    0.00    0.    0.    0.00    0.    0.    0.    0.    0.    0.    0.   78.93    3.501  -34.54
 777.6 1177924807.    3.644   36.87   11.654    2.764   58.25   34.44    0.20   -4.67   61.07   -2.34    0.905    1.6231    1.2140   18.09   32.46   24.28    0.   74.83   10.59   13.61    0.000097    0.000001    0.000036    0.000011    0.000017    0.000032    0.000000    1.03   37.11   11.34   17.53   32.99    0.   74.83  162.1    0.    0.    0.00    0.000    0.00    0.0    0.00    0.00    0.00    0.00    0.    0.    0.00    0.    0.    0.    0.    0.    0.    0.   77.77    5.666  -34.60
 777.8 1177924857.    3.432   36.98   11.271    2.728   58.21   34.39    0.20   -4.54   61.28   -2.35    0.925    1.6231    1.2139   18.49   32.46   24.28    0.   75.23   14.91   12.75    0.000091    0.000001    0.000036    0.000007    0.000016    0.000031    0.000000    1.10   39.56    7.69   17.58   34.07    0.   75.23  162.5    0.    0.    0.00    0.000    0.00    0.0    0.00    0.00    0.00    0.00    0.    0.    0.00    0.    0.    0.    0.    0.    0.    0.   78.23    4.024  -34.72
