# ------- LAS файл, созданный программой "GeoData" ------- #

~Version  information
# ---------------- ИНФОРМАЦИЯ О LAS-ФАЙЛЕ ---------------- #
VERS.                               1.20: CWLS log ASCII Standart - VERSION 1.20
WRAP.                                 NO: One line per depth step

~Well
# ----------------- ЗНАЧЕНИЯ ПАРАМЕТРОВ ------------------ #
NULL.                          -32768.00: Нулевое значение
WELL.                               WELL: 305
FLD .                              FIELD: Луза
STRT.M                              0,20: First depth
STOP.M                           1060,60: Last depth
STEP.M                              0.20: Depth increment
DATE.                           LOG_DATE: 
SRVC.                    SERVICE_COMPANY: 
COMP.                            COMPANY: 
CUST.                           CUSTOMER: 
CNTY.                            COUNTRY: 
METD.                             METHOD: 
DPST.                            DEPOSIT: 
STTP.                        тип_станции: 
GTIP.                         партия_ГТИ: 
CHTP.                   тип_хроматографа: 
GRMT.                   начальник_отряда: 
BOSS.                   начальник_партии: 
DRLM.                        вид_бурения: 
PERS.                          операторы: 
OTR .                       номер_отряда: 
PRJD.M                   проектный_забой: 0,0
ALTR.M                  альтитуда_ротора: 0,0
WDIM.MM                 диаметр_скважины: 0,0
KDIM.MM               диаметр_кондуктора: 0,0
BKND.                  башмак_кондуктора: 0,0
KUST.                               Куст: 

~Curve
# ------------------- НАЗВАНИЯ КРИВЫХ -------------------- #
DEPT.м                                  : Глубина
TIME.                                   : Время
тальблок.м                              : Положение тальблока
вес_на_крюке.т                          : Вес на крюке
нагрузка.т.                             : Нагрузка на долото
момент_ротора.кН*м                      : Крутящий момент ротора
давление_на_входе.атм.                  : Давление ПЖ на входе
расход_на_входе.л/с                     : Расход ПЖ на входе
обороты_ротора.об/мин                   : Обороты ротора
температура_на_выходе.°С                : Температура на выходе
ходы_насоса1.ход/мин                    : Ходы насоса-1
ходы_насоса2.ход/мин                    : Ходы насоса-2
уровень_в_емкости.м                     : Уровень-1
уровень_в_емкости2.м                    : Уровень-2
уровень_в_емкости3.м                    : Уровень-3
объем_в_емкости1.м3                     : Объём-1
объем_в_емкости2.м3                     : Объём-2
объем_в_емкости3.м3                     : Объём-3
глубина_над_забоем.м                    : Глубина над забоем
объем_актив_емкости.м3                  : Объем ПЖ в активн.ёмкостях
скорость_механическая.м/ч               : Скорость механическая
скорость_бурения.м/ч                    : Скорость бурения
сумм_газ.%                              : Сумма газов хром.
метан_абс.%                             : Метан абс.
этан_абс.%                              : Этан абс.
пропан_абс.%                            : Пропан абс.
бутан_абс.%                             : Бутан абс.
пентан_абс.%                            : Пентан абс.
гексан_абс.%                            : Гексан абс.
метан_отн.%                             : Метан отн.
этан_отн.%                              : Этан отн.
пропан_отн.%                            : Пропан отн.
бутан_отн.%                             : Бутан отн.
пентан_отн.%                            : Пентан отн.
гексан_отн.%                            : Гексан отн.
объем_емкости.м3                        : Объем ПЖ в емкостях
объем_раствора.м3                       : Общий V раствора
PLOT.г/см3                              : Плот.пор.
POR .                                   : Пористость
CLCT.%                                  : Кальцит
DLMT.%                                  : Доломит
NO  .%                                  : Н.О.
LITO.                                   : Литология
SHL2.                                   : Шлам-2
SHL3.                                   : Шлам-3
SHL4.                                   : Шлам-4
SHL5.                                   : Шлам-5
SHL6.                                   : Шлам-6
nfst.                                   : Нефтенасыщенность
shl1.                                   : shl1
F1  .%                                  : Ф1
F2  .%                                  : Ф2
F3  .%                                  : Ф3
F4  .%                                  : Ф4
F5  .%                                  : Ф5
F6  .%                                  : Ф6
F7  .%                                  : Ф7
расход_на_выходе.%                      : Расход ПЖ на выходе
дмк .мин/м                              : ДМК
параметр1.атм                           : Параметр - 1

~Other Information
# --------------------- ТЕКСТОВЫЕ ДАННЫЕ --------------------- #
"лба" 22,40 22,40 0 0 "<1 БГ ЛБ" 0 0 11 16777215
"лба" 39,60 39,60 0 0 "<1 БГ ЛБ" 0 0 11 16777215
"лба" 58,40 58,40 0 0 "<1 БГ ЛБ" 0 0 11 16777215
"лба" 78,80 78,80 0 0 "<1 БГ ЛБ" 0 0 11 16777215
"лба" 99,20 99,20 0 0 "<1 БГ ЛБ" 0 0 11 16777215
"лба" 114,80 114,80 0 0 "<1 БГ ЛБ" 0 0 11 16777215
"лба" 131,00 131,00 0 0 "<1 БГ ЛБ" 0 0 11 16777215
"лба" 146,40 146,40 0 0 "<1 БГ ЛБ" 0 0 11 16777215
"лба" 163,20 163,20 0 0 "<1 БГ ЛБ" 0 0 11 16777215
"лба" 181,20 181,20 0 0 "<1 БГ ЛБ" 0 0 11 16777215
"лба" 197,20 197,20 0 0 "<1 БГ ЛБ" 0 0 11 16777215
"лба" 211,00 211,00 0 0 "<1 БГ ЛБ" 0 0 11 16777215
"лба" 221,80 221,80 0 0 "<1 БГ ЛБ" 0 0 11 16777215
"лба" 234,00 234,00 0 0 "<1 БГ ЛБ" 0 0 11 16777215
"лба" 246,80 246,80 0 0 "<1 БГ ЛБ" 0 0 11 16777215
"лба" 259,60 259,60 0 0 "<1 БГ ЛБ" 0 0 11 16777215
"лба" 268,60 268,60 0 0 "<1 БГ ЛБ" 0 0 11 16777215
"лба" 278,00 278,00 0 0 "<1 БГ ЛБ" 0 0 11 16777215
"лба" 284,00 284,00 0 0 "<1 БГ ЛБ" 0 0 11 16777215
"лба" 290,20 290,20 0 0 "<1 БГ ЛБ" 0 0 11 16777215
"лба" 299,40 299,40 0 0 "<1 БГ ЛБ" 0 0 11 16777215
"лба" 309,60 309,60 0 0 "<1 БГ ЛБ" 0 0 11 16777215
"лба" 319,80 319,80 0 0 "<1 БГ ЛБ" 0 0 11 16777215
"лба" 331,60 331,60 0 0 "<1 БГ ЛБ" 0 0 11 16777215
"лба" 341,00 341,00 0 0 "<1 БГ ЛБ" 0 0 11 16777215
"лба" 351,40 351,40 0 0 "<1 БГ ЛБ" 0 0 11 16777215
"лба" 359,40 359,40 0 0 "<1 БГ ЛБ" 0 0 11 16777215
"лба" 370,60 370,60 0 0 "<1 БГ ЛБ" 0 0 11 16777215
"лба" 380,80 380,80 0 0 "<1 БГ ЛБ" 0 0 11 16777215
"лба" 397,80 397,80 0 0 "<1 БГ ЛБ" 0 0 11 16777215
"лба" 415,80 415,80 0 0 "<1 БГ ЛБ" 0 0 11 16777215
"лба" 438,20 438,20 0 0 "<1 БГ ЛБ" 0 0 11 16777215
"лба" 461,00 461,00 0 0 "<1 БГ ЛБ" 0 0 11 16777215
"лба" 485,60 485,60 0 0 "<1 БГ ЛБ" 0 0 11 16777215
"лба" 501,40 501,40 0 0 "<1 БГ ЛБ" 0 0 11 16777215
"лба" 516,80 516,80 0 0 "<1 БГ ЛБ" 0 0 11 16777215
"лба" 531,40 531,40 0 0 "<1 БГ ЛБ" 0 0 11 16777215
"лба" 543,40 543,40 0 0 "<1 БГ ЛБ" 0 0 11 16777215
"лба" 552,40 552,40 0 0 "<1 БГ ЛБ" 0 0 11 16777215
"лба" 559,20 559,20 0 0 "<1 БГ ЛБ" 0 0 11 16777215
"лба" 566,60 566,60 0 0 "<1 БГ ЛБ" 0 0 11 16777215
"лба" 568,90 580,00 0 0 "нет нет нет" 0 0 11 16777215
"лба" 580,00 590,00 0 0 "нет нет нет" 0 0 11 16777215
"лба" 590,00 600,00 0 0 "нет нет нет" 0 0 11 16777215
"лба" 600,00 640,00 0 0 "нет нет нет" 0 0 11 16777215
"лба" 640,00 660,00 0 0 "нет нет нет" 0 0 11 16777215
"лба" 660,00 680,00 0 0 "нет нет нет" 0 0 11 16777215
"лба" 680,20 700,00 0 0 "нет нет нет" 0 0 11 16777215
"сумм_газ" 516,80 516,80 1176749486 0 "Проверка хроматографа" 0 0 10 16777215

# ------------------ ЗНАЧЕНИЯ КРИВЫХ ------------------ #
~ASCII Log Data
# ...
 421.2 1176701173.    5.379   24.34    8.552    1.375   50.86   33.52   73.03   -2.42   61.74   -0.04    1.347    0.7017    0.4031   26.93   14.03    8.06    0.   49.03    9.54   14.09    0.000439    0.000241    0.000051    0.000055    0.000075    0.000017    0.000000   54.90   11.62   12.53   17.08    3.87    0.   49.03   92.9    0.    0.    8.00    0.000   92.00    3.0    5.10   10.10    0.00    0.00    0.    0.    3.80    0.    0.    0.    0.    0.    0.    0.   33.88    6.288  -50.08
 421.4 1176701219.    5.178   24.07    8.873    1.448   50.86   33.65   72.85   -2.38   61.94   -0.05    1.347    0.7018    0.4030   26.94   14.04    8.06    0.   49.03   15.77   12.63    0.000365    0.000225    0.000048    0.000042    0.000036    0.000014    0.000000   61.64   13.15   11.51    9.86    3.84    0.   49.03   92.9    0.    0.    8.00    0.000   92.00    3.0    5.10   10.10    0.00    0.00    0.    0.    3.80    0.    0.    0.    0.    0.    0.    0.   33.71    3.806  -50.12
 421.6 1176701282.    4.973   23.99    9.188    1.417   50.86   33.59   72.94   -2.41   62.12   -0.05    1.347    0.7017    0.4030   26.93   14.03    8.06    0.   49.03   11.05   13.05    0.000346    0.000221    0.000043    0.000036    0.000026    0.000020    0.000000   63.87   12.43   10.40    7.51    5.78    0.   49.03   92.9    0.    0.    8.00    0.000   92.00    3.0    5.10   10.10    0.00    0.00    0.    0.    3.80    0.    0.    0.    0.    0.    0.    0.   33.89    5.429  -50.10
 421.8 1176701333.    4.777   23.58    9.477    1.584   50.86   33.67   73.17   -2.39   61.37   -0.05    1.346    0.7019    0.4030   26.92   14.04    8.06    0.   49.02   13.39   13.02    0.000343    0.000215    0.000039    0.000035    0.000032    0.000022    0.000000   62.68   11.37   10.20    9.33    6.41    0.   49.02   92.9    0.    0.    8.00    0.000   92.00    3.0    5.10   10.10    0.00    0.00    0.    0.    3.80    0.    0.    0.    0.    0.    0.    0.   33.70    4.481  -50.11
 422.0 1176701400.    4.579   24.74    8.040    1.235   50.86   33.62   72.79   -2.38   61.60   -0.05    1.347    0.7018    0.4030   26.93   14.04    8.06    0.   49.03   10.82   10.88    0.000371    0.000200    0.000032    0.000045    0.000078    0.000016    0.000000   53.91    8.63   12.13   21.02    4.31    0.   49.03   93.0    0.    0.    8.00    0.000   92.00    3.0    5.10   10.10    0.00    0.00    0.    0.    3.80    0.    0.    0.    0.    0.    0.    0.   33.64    5.543  -50.10
 422.2 1176701442.    4.379   23.37    9.964    1.588   50.86   33.77   72.92   -2.38   62.07   -0.05    1.345    0.7015    0.4031   26.89   14.03    8.06    0.   48.98   17.27   14.73    0.000487    0.000236    0.000039    0.000084    0.000104    0.000024    0.000000   48.46    8.01   17.25   21.36    4.93    0.   48.98   92.9    0.    0.    8.00    0.000   92.00    3.0    5.10   10.10    0.00    0.00    0.    0.    3.80    0.    0.    0.    0.    0.    0.    0.   33.60    3.475  -50.09
 422.4 1176701490.    4.178   23.72    9.703    1.453   50.86   33.58   73.20   -2.38   62.10   -0.06    1.344    0.7017    0.4030   26.90   14.03    8.06    0.   48.99   15.11   15.99    0.000502    0.000242    0.000039    0.000082    0.000112    0.000027    0.000000   48.21    7.77   16.33   22.31    5.38    0.   48.99   93.0    0.    0.    8.00    0.000   92.00    3.0    5.10   10.10    0.00    0.00    0.    0.    3.80    0.    0.    0.    0.    0.    0.    0.   33.21    3.971  -50.11
 422.6 1176701528.    3.979   23.69    9.704    1.471   50.86   33.67   73.11   -2.30   61.73   -0.06    1.346    0.7017    0.4031   26.92   14.03    8.06    0.   49.02   20.38   17.16    0.000524    0.000259    0.000034    0.000049    0.000144    0.000038    0.000000   49.43    6.49    9.35   27.48    7.25    0.   49.02   93.0    0.    0.    8.00    0.000   92.00    3.0    5.10   10.10    0.00    0.00    0.    0.    3.80    0.    0.    0.    0.    0.    0.    0.   33.21    2.943  -50.08
 422.8 1176701565.    3.779   23.50    9.801    1.538   50.86   33.65   73.24   -2.36   61.69   -0.06    1.344    0.7016    0.4030   26.88   14.03    8.06    0.   48.97   18.82   19.65    0.000524    0.000257    0.000034    0.000050    0.000146    0.000037    0.000000   49.05    6.49    9.54   27.86    7.06    0.   48.97   93.0    0.    0.    8.00    0.000   92.00    3.0    5.10   10.10    0.00    0.00    0.    0.    3.80    0.    0.    0.    0.    0.    0.    0.   33.20    3.189  -50.07
 423.0 1176701610.    3.567   23.40   10.324    1.698   50.86   33.62   73.18   -2.39   61.25   -0.06    1.346    0.7017    0.4031   26.93   14.03    8.06    0.   49.02   16.76   18.28    0.000551    0.000234    0.000030    0.000066    0.000190    0.000031    0.000000   42.47    5.44   11.98   34.48    5.63    0.   49.02   93.1    0.    0.    8.00    0.000   92.00    3.0    5.10   10.10    0.00    0.00    0.    0.    3.80    0.    0.    0.    0.    0.    0.    0.   33.26    3.580  -50.07
 423.2 1176701658.    3.366   22.89   10.419    1.452   50.86   33.73   72.87   -2.41   62.33   -0.06    1.346    0.7014    0.4030   26.93   14.03    8.06    0.   49.02   15.71   17.79    0.000528    0.000237    0.000028    0.000070    0.000163    0.000030    0.000000   44.89    5.30   13.26   30.87    5.68    0.   49.02   93.1    0.    0.    8.00    0.000   92.00    3.0    5.10   10.10    0.00    0.00    0.    0.    3.80    0.    0.    0.    0.    0.    0.    0.   33.05    3.818  -50.09
 423.4 1176701715.    3.166   22.95   10.272    1.428   50.86   33.67   72.80   -2.43   61.78   -0.06    1.334    0.7014    0.4030   26.69   14.03    8.06    0.   48.78   12.21   14.28    0.000479    0.000245    0.000024    0.000078    0.000105    0.000027    0.000000   51.15    5.01   16.28   21.92    5.64    0.   48.78   92.9    0.    0.    8.00    0.000   92.00    3.0    5.10   10.10    0.00    0.00    0.    0.    3.80    0.    0.    0.    0.    0.    0.    0.   32.57    4.912  -50.10
 423.6 1176701768.    2.964   23.30   10.116    1.404   50.86   33.70   73.35   -2.40   61.36   -0.06    1.339    0.7014    0.4030   26.78   14.03    8.06    0.   48.86   12.59   12.92    0.000454    0.000237    0.000038    0.000070    0.000085    0.000024    0.000000   52.20    8.37   15.42   18.72    5.29    0.   48.86   93.0    0.    0.    8.00    0.000   92.00    3.0    5.10   10.10    0.00    0.00    0.    0.    3.80    0.    0.    0.    0.    0.    0.    0.   32.26    4.766  -50.06
 423.8 1176701815.    2.780   22.93    9.956    1.472   50.86   33.76   72.18   -2.35   61.87   -0.07    1.343    0.7012    0.4030   26.87   14.02    8.06    0.   48.96   16.05   14.94    0.000442    0.000243    0.000042    0.000059    0.000071    0.000027    0.000000   54.98    9.50   13.35   16.06    6.11    0.   48.96   93.1    0.    0.    8.00    0.000   92.00    3.0    5.10   10.10    0.00    0.00    0.    0.    3.80    0.    0.    0.    0.    0.    0.    0.   32.34    3.739  -50.08
 424.0 1176701862.    2.572   22.84    9.731    1.377   50.86   33.69   73.07   -2.36   61.56   -0.07    1.338    0.7014    0.4031   26.76   14.03    8.06    0.   48.85   14.20   14.50    0.000415    0.000270    0.000045    0.000027    0.000035    0.000038    0.000000   65.06   10.84    6.51    8.43    9.16    0.   48.85   93.0    0.    0.    8.00    0.000   92.00    3.0    5.10   10.10    0.00    0.00    0.    0.    3.80    0.    0.    0.    0.    0.    0.    0.   32.26    4.227  -50.12
 424.2 1176701925.    2.385   23.09    9.814    1.471   50.86   33.72   73.16   -2.37   62.06   -0.07    1.344    0.7012    0.4031   26.87   14.02    8.06    0.   48.95   11.51   12.47    0.000489    0.000268    0.000051    0.000036    0.000088    0.000046    0.000000   54.81   10.43    7.36   18.00    9.41    0.   48.95   93.2    0.    0.    8.00    0.000   92.00    3.0    5.10   10.10    0.00    0.00    0.    0.    3.80    0.    0.    0.    0.    0.    0.    0.   31.86    5.212  -50.06
 424.4 1176701986.    2.190   22.40   10.061    1.562   50.86   33.82   72.95   -2.33   61.84   -0.07    1.344    0.7014    0.4030   26.88   14.03    8.06    0.   48.97   12.36   12.66    0.000531    0.000265    0.000048    0.000048    0.000118    0.000052    0.000000   49.91    9.04    9.04   22.22    9.79    0.   48.97   93.2    0.    0.    8.00    0.000   92.00    3.0    5.10   10.10    0.00    0.00    0.    0.    3.80    0.    0.    0.    0.    0.    0.    0.   31.76    4.853  -50.06
