# ------- LAS файл, созданный программой "GeoData" ------- #

~Version  information
# ---------------- ИНФОРМАЦИЯ О LAS-ФАЙЛЕ ---------------- #
VERS.                               1.20: CWLS log ASCII Standart - VERSION 1.20
WRAP.                                 NO: One line per depth step

~Well
# ----------------- ЗНАЧЕНИЯ ПАРАМЕТРОВ ------------------ #
NULL.                          -32768.00: Нулевое значение
WELL.                               WELL: 305
FLD .                              FIELD: Луза
STRT.M                              0,20: First depth
STOP.M                           1060,60: Last depth
STEP.M                              0.20: Depth increment
DATE.                           LOG_DATE: 
SRVC.                    SERVICE_COMPANY: 
COMP.                            COMPANY: 
CUST.                           CUSTOMER: 
CNTY.                            COUNTRY: 
METD.                             METHOD: 
DPST.                            DEPOSIT: 
STTP.                        тип_станции: 
GTIP.                         партия_ГТИ: 
CHTP.                   тип_хроматографа: 
GRMT.                   начальник_отряда: 
BOSS.                   начальник_партии: 
DRLM.                        вид_бурения: 
PERS.                          операторы: 
OTR .                       номер_отряда: 
PRJD.M                   проектный_забой: 0,0
ALTR.M                  альтитуда_ротора: 0,0
WDIM.MM                 диаметр_скважины: 0,0
KDIM.MM               диаметр_кондуктора: 0,0
BKND.                  башмак_кондуктора: 0,0
KUST.                               Куст: 

~Curve
# ------------------- НАЗВАНИЯ КРИВЫХ -------------------- #
DEPT.м                                  : Глубина
TIME.                                   : Время
тальблок.м                              : Положение тальблока
вес_на_крюке.т                          : Вес на крюке
нагрузка.т.                             : Нагрузка на долото
момент_ротора.кН*м                      : Крутящий момент ротора
давление_на_входе.атм.                  : Давление ПЖ на входе
расход_на_входе.л/с                     : Расход ПЖ на входе
обороты_ротора.об/мин                   : Обороты ротора
температура_на_выходе.°С                : Температура на выходе
ходы_насоса1.ход/мин                    : Ходы насоса-1
ходы_насоса2.ход/мин                    : Ходы насоса-2
уровень_в_емкости.м                     : Уровень-1
уровень_в_емкости2.м                    : Уровень-2
уровень_в_емкости3.м                    : Уровень-3
объем_в_емкости1.м3                     : Объём-1
объем_в_емкости2.м3                     : Объём-2
объем_в_емкости3.м3                     : Объём-3
глубина_над_забоем.м                    : Глубина над забоем
объем_актив_емкости.м3                  : Объем ПЖ в активн.ёмкостях
скорость_механическая.м/ч               : Скорость механическая
скорость_бурения.м/ч                    : Скорость бурения
сумм_газ.%                              : Сумма газов хром.
метан_абс.%                             : Метан абс.
этан_абс.%                              : Этан абс.
пропан_абс.%                            : Пропан абс.
бутан_абс.%                             : Бутан абс.
пентан_абс.%                            : Пентан абс.
гексан_абс.%                            : Гексан абс.
метан_отн.%                             : Метан отн.
этан_отн.%                              : Этан отн.
пропан_отн.%                            : Пропан отн.
бутан_отн.%                             : Бутан отн.
пентан_отн.%                            : Пентан отн.
гексан_отн.%                            : Гексан отн.
объем_емкости.м3                        : Объем ПЖ в емкостях
объем_раствора.м3                       : Общий V раствора
PLOT.г/см3                              : Плот.пор.
POR .                                   : Пористость
CLCT.%                                  : Кальцит
DLMT.%                                  : Доломит
NO  .%                                  : Н.О.
LITO.                                   : Литология
SHL2.                                   : Шлам-2
SHL3.                                   : Шлам-3
SHL4.                                   : Шлам-4
SHL5.                                   : Шлам-5
SHL6.                                   : Шлам-6
nfst.                                   : Нефтенасыщенность
shl1.                                   : shl1
F1  .%                                  : Ф1
F2  .%                                  : Ф2
F3  .%                                  : Ф3
F4  .%                                  : Ф4
F5  .%                                  : Ф5
F6  .%                                  : Ф6
F7  .%                                  : Ф7
расход_на_выходе.%                      : Расход ПЖ на выходе
дмк .мин/м                              : ДМК
параметр1.атм                           : Параметр - 1

~Other Information
# --------------------- ТЕКСТОВЫЕ ДАННЫЕ --------------------- #
"лба" 22,40 22,40 0 0 "<1 БГ ЛБ" 0 0 11 16777215
"лба" 39,60 39,60 0 0 "<1 БГ ЛБ" 0 0 11 16777215
"лба" 58,40 58,40 0 0 "<1 БГ ЛБ" 0 0 11 16777215
"лба" 78,80 78,80 0 0 "<1 БГ ЛБ" 0 0 11 16777215
"лба" 99,20 99,20 0 0 "<1 БГ ЛБ" 0 0 11 16777215
"лба" 114,80 114,80 0 0 "<1 БГ ЛБ" 0 0 11 16777215
"лба" 131,00 131,00 0 0 "<1 БГ ЛБ" 0 0 11 16777215
"лба" 146,40 146,40 0 0 "<1 БГ ЛБ" 0 0 11 16777215
"лба" 163,20 163,20 0 0 "<1 БГ ЛБ" 0 0 11 16777215
"лба" 181,20 181,20 0 0 "<1 БГ ЛБ" 0 0 11 16777215
"лба" 197,20 197,20 0 0 "<1 БГ ЛБ" 0 0 11 16777215
"лба" 211,00 211,00 0 0 "<1 БГ ЛБ" 0 0 11 16777215
"лба" 221,80 221,80 0 0 "<1 БГ ЛБ" 0 0 11 16777215
"лба" 234,00 234,00 0 0 "<1 БГ ЛБ" 0 0 11 16777215
"лба" 246,80 246,80 0 0 "<1 БГ ЛБ" 0 0 11 16777215
"лба" 259,60 259,60 0 0 "<1 БГ ЛБ" 0 0 11 16777215
"лба" 268,60 268,60 0 0 "<1 БГ ЛБ" 0 0 11 16777215
"лба" 278,00 278,00 0 0 "<1 БГ ЛБ" 0 0 11 16777215
"лба" 284,00 284,00 0 0 "<1 БГ ЛБ" 0 0 11 16777215
"лба" 290,20 290,20 0 0 "<1 БГ ЛБ" 0 0 11 16777215
"лба" 299,40 299,40 0 0 "<1 БГ ЛБ" 0 0 11 16777215
"лба" 309,60 309,60 0 0 "<1 БГ ЛБ" 0 0 11 16777215
"лба" 319,80 319,80 0 0 "<1 БГ ЛБ" 0 0 11 16777215
"лба" 331,60 331,60 0 0 "<1 БГ ЛБ" 0 0 11 16777215
"лба" 341,00 341,00 0 0 "<1 БГ ЛБ" 0 0 11 16777215
"лба" 351,40 351,40 0 0 "<1 БГ ЛБ" 0 0 11 16777215
"лба" 359,40 359,40 0 0 "<1 БГ ЛБ" 0 0 11 16777215
"лба" 370,60 370,60 0 0 "<1 БГ ЛБ" 0 0 11 16777215
"лба" 380,80 380,80 0 0 "<1 БГ ЛБ" 0 0 11 16777215
"лба" 397,80 397,80 0 0 "<1 БГ ЛБ" 0 0 11 16777215
"лба" 415,80 415,80 0 0 "<1 БГ ЛБ" 0 0 11 16777215
"лба" 438,20 438,20 0 0 "<1 БГ ЛБ" 0 0 11 16777215
"лба" 461,00 461,00 0 0 "<1 БГ ЛБ" 0 0 11 16777215
"лба" 485,60 485,60 0 0 "<1 БГ ЛБ" 0 0 11 16777215
"лба" 501,40 501,40 0 0 "<1 БГ ЛБ" 0 0 11 16777215
"лба" 516,80 516,80 0 0 "<1 БГ ЛБ" 0 0 11 16777215
"лба" 531,40 531,40 0 0 "<1 БГ ЛБ" 0 0 11 16777215
"лба" 543,40 543,40 0 0 "<1 БГ ЛБ" 0 0 11 16777215
"лба" 552,40 552,40 0 0 "<1 БГ ЛБ" 0 0 11 16777215
"лба" 559,20 559,20 0 0 "<1 БГ ЛБ" 0 0 11 16777215
"лба" 566,60 566,60 0 0 "<1 БГ ЛБ" 0 0 11 16777215
"лба" 568,90 580,00 0 0 "нет нет нет" 0 0 11 16777215
"лба" 580,00 590,00 0 0 "нет нет нет" 0 0 11 16777215
"лба" 590,00 600,00 0 0 "нет нет нет" 0 0 11 16777215
"лба" 600,00 640,00 0 0 "нет нет нет" 0 0 11 16777215
"лба" 640,00 660,00 0 0 "нет нет нет" 0 0 11 16777215
"лба" 660,00 680,00 0 0 "нет нет нет" 0 0 11 16777215
"лба" 680,20 700,00 0 0 "нет нет нет" 0 0 11 16777215
"сумм_газ" 516,80 516,80 1176749486 0 "Проверка хроматографа" 0 0 10 16777215

# ------------------ ЗНАЧЕНИЯ КРИВЫХ ------------------ #
~ASCII Log Data
# ...
 352.8 1176664114.   13.132   22.58   11.423    1.680   37.35   33.37   77.66   20.92   60.88    0.29    1.170    0.7046    0.4046   23.41   14.09    8.09    0.   45.59   48.18   16.29    0.000092    0.000005    0.000021    0.000009    0.000028    0.000029    0.000000    5.43   22.83    9.78   30.43   31.52    0.   45.59   81.1    0.    0.    8.00    0.000   92.00    5.0    5.30   10.20    0.00    0.00    0.    0.    3.50    0.    0.    0.    0.    0.    0.    0.   35.05    1.245 -4081.71
 353.0 1176664138.   12.970   23.26   10.744    1.539   37.35   33.27   77.32   21.46   60.85    0.31    1.171    0.7036    0.4044   23.41   14.08    8.09    0.   45.58   28.10   25.70    0.000115    0.000006    0.000044    0.000005    0.000018    0.000042    0.000000    5.22   38.26    4.35   15.65   36.52    0.   45.58   81.1    0.    0.    8.00    0.000   92.00    3.0    5.30   10.20    0.00    0.00    0.    0.    3.50    0.    0.    0.    0.    0.    0.    0.   35.07    2.135 -4091.71
 353.2 1176664166.   12.750   24.38    9.619    1.288   37.35   32.90   77.15   21.98   60.93    0.30    1.171    0.7003    0.4045   23.41   14.00    8.09    0.   45.50   27.10   31.78    0.000115    0.000006    0.000044    0.000005    0.000018    0.000042    0.000000    5.22   38.26    4.35   15.65   36.52    0.   45.50   81.1    0.    0.    8.00    0.000   92.00    3.0    5.30   10.20    0.00    0.00    0.    0.    3.50    0.    0.    0.    0.    0.    0.    0.   35.02    2.214 -4075.04
 353.4 1176664188.   12.547   22.46   11.537    1.519   37.35   33.16   76.98   22.23   60.81    0.29    1.171    0.7035    0.4043   23.41   14.06    8.09    0.   45.56   33.46   30.51    0.000115    0.000006    0.000044    0.000005    0.000018    0.000042    0.000000    5.22   38.26    4.35   15.65   36.52    0.   45.56   81.2    0.    0.    8.00    0.000   92.00    3.0    5.30   10.20    0.00    0.00    0.    0.    3.50    0.    0.    0.    0.    0.    0.    0.   35.00    1.793 -4082.04
 353.6 1176664229.   12.347   22.55   11.452    1.448   37.35   33.10   76.98   22.40   60.91    0.30    1.171    0.7042    0.4044   23.41   14.09    8.09    0.   45.59   17.14   26.77    0.000080    0.000002    0.000035    0.000007    0.000015    0.000021    0.000000    2.50   43.75    8.75   18.75   26.25    0.   45.59   81.2    0.    0.    8.00    0.000   92.00    3.0    5.30   10.20    0.00    0.00    0.    0.    3.50    0.    0.    0.    0.    0.    0.    0.   35.58    3.501 -4081.04
 353.8 1176664287.   12.162   24.82    9.184    1.048   37.35   32.95   76.98   22.50   60.81    0.29    1.171    0.7042    0.4044   23.41   14.08    8.09    0.   45.58   12.60   14.21    0.000083    0.000002    0.000034    0.000007    0.000015    0.000025    0.000000    2.41   40.96    8.43   18.07   30.12    0.   45.58   81.2    0.    0.    8.00    0.000   92.00    3.0    5.30   10.20    0.00    0.00    0.    0.    3.50    0.    0.    0.    0.    0.    0.    0.   36.33    4.763 -4085.60
 354.0 1176664331.   11.944   22.98   11.015    1.234   37.35   32.85   76.98   22.56   60.90    0.30    1.171    0.7074    0.4045   23.41   14.14    8.09    0.   45.65   17.88   15.93    0.000108    0.000001    0.000037    0.000009    0.000016    0.000045    0.000000    0.93   34.26    8.33   14.81   41.67    0.   45.65   81.3    0.    0.    8.00    0.000   92.00    3.0    5.30   10.20    0.00    0.00    0.    0.    3.50    0.    0.    0.    0.    0.    0.    0.   36.41    3.355 -4088.71
 354.2 1176664363.   11.733   21.58   12.422    1.487   37.74   32.80   76.98   22.56   61.01    0.30    1.171    0.7078    0.4045   23.41   14.16    8.09    0.   45.66   20.20   19.33    0.000103    0.000002    0.000033    0.000009    0.000019    0.000040    0.000000    1.94   32.04    8.74   18.45   38.83    0.   45.66   81.3    0.    0.    8.00    0.000   92.00    3.0    5.30   10.20    0.00    0.00    0.    0.    3.50    0.    0.    0.    0.    0.    0.    0.   36.43    2.970 -4090.50
 354.4 1176664404.   11.565   23.52   10.478    1.231   38.13   32.83   77.15   22.56   60.81    0.30    1.171    0.7095    0.4044   23.41   14.19    8.09    0.   45.69   17.82   19.51    0.000089    0.000003    0.000022    0.000010    0.000028    0.000026    0.000000    3.37   24.72   11.24   31.46   29.21    0.   45.69   81.4    0.    0.    8.00    0.000   92.00    3.0    5.30   10.20    0.00    0.00    0.    0.    3.50    0.    0.    0.    0.    0.    0.    0.   36.45    3.367 -4092.40
 354.6 1176664445.   11.347   23.06   10.938    1.248   38.13   32.67   77.32   22.54   60.87    0.30    1.171    0.7082    0.4044   23.41   14.17    8.09    0.   45.67   17.82   18.27    0.000085    0.000002    0.000024    0.000009    0.000025    0.000025    0.000000    2.35   28.24   10.59   29.41   29.41    0.   45.67   81.4    0.    0.    8.00    0.000   92.00    3.0    5.30   10.20    0.00    0.00    0.    0.    3.50    0.    0.    0.    0.    0.    0.    0.   36.46    3.367 -4086.83
 354.8 1176664480.   11.153   23.41   10.587    1.316   38.13   32.52   77.32   22.50   60.84    0.31    1.171    0.7063    0.4045   23.41   14.12    8.09    0.   45.62   20.66   18.98    0.000075    0.000001    0.000029    0.000007    0.000018    0.000020    0.000000    1.33   38.67    9.33   24.00   26.67    0.   45.62   81.4    0.    0.    8.00    0.000   92.00    3.0    5.30   10.20    0.00    0.00    0.    0.    3.50    0.    0.    0.    0.    0.    0.    0.   36.47    2.904 -4091.89
 355.0 1176664510.   10.948   23.31   10.689    1.295   38.13   31.78   77.66   22.48   60.96    0.34    1.171    0.7080    0.4044   23.41   14.16    8.09    0.   45.66   24.36   21.70    0.000075    0.000001    0.000029    0.000007    0.000018    0.000020    0.000000    1.33   38.67    9.33   24.00   26.67    0.   45.66   81.4    0.    0.    8.00    0.000   92.00    3.0    5.30   10.20    0.00    0.00    0.    0.    3.50    0.    0.    0.    0.    0.    0.    0.   36.50    2.463 -4090.88
 355.2 1176664540.   10.752   24.95    9.045    1.276   38.13   31.69   77.66   22.46   61.25    0.35    1.171    0.7089    0.4045   23.41   14.18    8.09    0.   45.68   24.36   24.00    0.000125    0.000001    0.000037    0.000009    0.000024    0.000054    0.000000    0.80   29.60    7.20   19.20   43.20    0.   45.68   81.5    0.    0.    8.00    0.000   92.00    3.0    5.30   10.20    0.00    0.00    0.    0.    3.50    0.    0.    0.    0.    0.    0.    0.   36.49    2.463 -4080.81
 355.4 1176664560.   10.540   25.73    8.266    1.209   38.13   31.63   77.66   22.43   61.36    0.32    1.171    0.7088    0.4045   23.42   14.17    8.09    0.   45.68   36.53   26.39    0.000134    0.000001    0.000038    0.000010    0.000025    0.000060    0.000000    0.75   28.36    7.46   18.66   44.78    0.   45.68   81.5    0.    0.    8.00    0.000   92.00    3.0    5.30   10.20    0.00    0.00    0.    0.    3.50    0.    0.    0.    0.    0.    0.    0.   36.48    1.642 -4092.96
 355.6 1176664597.   10.354   24.57    9.425    1.174   38.13   31.56   77.66   22.42   60.77    0.30    1.171    0.7076    0.4045   23.41   14.15    8.09    0.   45.66   19.52   26.43    0.000131    0.000001    0.000038    0.000010    0.000025    0.000057    0.000000    0.76   29.01    7.63   19.08   43.51    0.   45.66   81.5    0.    0.    8.00    0.000   92.00    3.0    5.30   10.20    0.00    0.00    0.    0.    3.50    0.    0.    0.    0.    0.    0.    0.   36.46    3.074 -4085.98
 355.8 1176664828.   10.150   25.81    8.195    1.047   38.13   31.78   77.66   22.22   60.90    0.30    1.171    0.7083    0.4046   23.41   14.17    8.09    0.   45.67   20.88   24.54    0.000083    0.000001    0.000030    0.000009    0.000020    0.000023    0.000000    1.20   36.14   10.84   24.10   27.71    0.   45.67   81.5    0.    0.    8.00    0.000   92.00    3.0    5.30   10.20    0.00    0.00    0.    0.    3.50    0.    0.    0.    0.    0.    0.    0.   36.45    2.874 -4085.81
 356.0 1176664857.    9.958   24.62    9.381    1.335   38.13   31.98   77.66   21.70   60.98    0.28    1.171    0.7083    0.4044   23.42   14.16    8.09    0.   45.67   28.10   22.80    0.000100    0.000001    0.000041    0.000008    0.000018    0.000032    0.000000    1.00   41.00    8.00   18.00   32.00    0.   45.67   81.6    0.    0.    8.00    0.000   92.00    3.0    5.30   10.20    0.00    0.00    0.    0.    3.50    0.    0.    0.    0.    0.    0.    0.   36.42    2.135 -4096.61
