# ------- LAS файл, созданный программой "GeoData" ------- #

~Version  information
# ---------------- ИНФОРМАЦИЯ О LAS-ФАЙЛЕ ---------------- #
VERS.                               1.20: CWLS log ASCII Standart - VERSION 1.20
WRAP.                                 NO: One line per depth step

~Well
# ----------------- ЗНАЧЕНИЯ ПАРАМЕТРОВ ------------------ #
NULL.                          -32768.00: Нулевое значение
WELL.                               WELL: 305
FLD .                              FIELD: Луза
STRT.M                              0,20: First depth
STOP.M                           1060,60: Last depth
STEP.M                              0.20: Depth increment
DATE.                           LOG_DATE: 
SRVC.                    SERVICE_COMPANY: 
COMP.                            COMPANY: 
CUST.                           CUSTOMER: 
CNTY.                            COUNTRY: 
METD.                             METHOD: 
DPST.                            DEPOSIT: 
STTP.                        тип_станции: 
GTIP.                         партия_ГТИ: 
CHTP.                   тип_хроматографа: 
GRMT.                   начальник_отряда: 
BOSS.                   начальник_партии: 
DRLM.                        вид_бурения: 
PERS.                          операторы: 
OTR .                       номер_отряда: 
PRJD.M                   проектный_забой: 0,0
ALTR.M                  альтитуда_ротора: 0,0
WDIM.MM                 диаметр_скважины: 0,0
KDIM.MM               диаметр_кондуктора: 0,0
BKND.                  башмак_кондуктора: 0,0
KUST.                               Куст: 

~Curve
# ------------------- НАЗВАНИЯ КРИВЫХ -------------------- #
DEPT.м                                  : Глубина
TIME.                                   : Время
тальблок.м                              : Положение тальблока
вес_на_крюке.т                          : Вес на крюке
нагрузка.т.                             : Нагрузка на долото
момент_ротора.кН*м                      : Крутящий момент ротора
давление_на_входе.атм.                  : Давление ПЖ на входе
расход_на_входе.л/с                     : Расход ПЖ на входе
обороты_ротора.об/мин                   : Обороты ротора
температура_на_выходе.°С                : Температура на выходе
ходы_насоса1.ход/мин                    : Ходы насоса-1
ходы_насоса2.ход/мин                    : Ходы насоса-2
уровень_в_емкости.м                     : Уровень-1
уровень_в_емкости2.м                    : Уровень-2
уровень_в_емкости3.м                    : Уровень-3
объем_в_емкости1.м3                     : Объём-1
объем_в_емкости2.м3                     : Объём-2
объем_в_емкости3.м3                     : Объём-3
глубина_над_забоем.м                    : Глубина над забоем
объем_актив_емкости.м3                  : Объем ПЖ в активн.ёмкостях
скорость_механическая.м/ч               : Скорость механическая
скорость_бурения.м/ч                    : Скорость бурения
сумм_газ.%                              : Сумма газов хром.
метан_абс.%                             : Метан абс.
этан_абс.%                              : Этан абс.
пропан_абс.%                            : Пропан абс.
бутан_абс.%                             : Бутан абс.
пентан_абс.%                            : Пентан абс.
гексан_абс.%                            : Гексан абс.
метан_отн.%                             : Метан отн.
этан_отн.%                              : Этан отн.
пропан_отн.%                            : Пропан отн.
бутан_отн.%                             : Бутан отн.
пентан_отн.%                            : Пентан отн.
гексан_отн.%                            : Гексан отн.
объем_емкости.м3                        : Объем ПЖ в емкостях
объем_раствора.м3                       : Общий V раствора
PLOT.г/см3                              : Плот.пор.
POR .                                   : Пористость
CLCT.%                                  : Кальцит
DLMT.%                                  : Доломит
NO  .%                                  : Н.О.
LITO.                                   : Литология
SHL2.                                   : Шлам-2
SHL3.                                   : Шлам-3
SHL4.                                   : Шлам-4
SHL5.                                   : Шлам-5
SHL6.                                   : Шлам-6
nfst.                                   : Нефтенасыщенность
shl1.                                   : shl1
F1  .%                                  : Ф1
F2  .%                                  : Ф2
F3  .%                                  : Ф3
F4  .%                                  : Ф4
F5  .%                                  : Ф5
F6  .%                                  : Ф6
F7  .%                                  : Ф7
расход_на_выходе.%                      : Расход ПЖ на выходе
дмк .мин/м                              : ДМК
параметр1.атм                           : Параметр - 1

~Other Information
# --------------------- ТЕКСТОВЫЕ ДАННЫЕ --------------------- #
"лба" 22,40 22,40 0 0 "<1 БГ ЛБ" 0 0 11 16777215
"лба" 39,60 39,60 0 0 "<1 БГ ЛБ" 0 0 11 16777215
"лба" 58,40 58,40 0 0 "<1 БГ ЛБ" 0 0 11 16777215
"лба" 78,80 78,80 0 0 "<1 БГ ЛБ" 0 0 11 16777215
"лба" 99,20 99,20 0 0 "<1 БГ ЛБ" 0 0 11 16777215
"лба" 114,80 114,80 0 0 "<1 БГ ЛБ" 0 0 11 16777215
"лба" 131,00 131,00 0 0 "<1 БГ ЛБ" 0 0 11 16777215
"лба" 146,40 146,40 0 0 "<1 БГ ЛБ" 0 0 11 16777215
"лба" 163,20 163,20 0 0 "<1 БГ ЛБ" 0 0 11 16777215
"лба" 181,20 181,20 0 0 "<1 БГ ЛБ" 0 0 11 16777215
"лба" 197,20 197,20 0 0 "<1 БГ ЛБ" 0 0 11 16777215
"лба" 211,00 211,00 0 0 "<1 БГ ЛБ" 0 0 11 16777215
"лба" 221,80 221,80 0 0 "<1 БГ ЛБ" 0 0 11 16777215
"лба" 234,00 234,00 0 0 "<1 БГ ЛБ" 0 0 11 16777215
"лба" 246,80 246,80 0 0 "<1 БГ ЛБ" 0 0 11 16777215
"лба" 259,60 259,60 0 0 "<1 БГ ЛБ" 0 0 11 16777215
"лба" 268,60 268,60 0 0 "<1 БГ ЛБ" 0 0 11 16777215
"лба" 278,00 278,00 0 0 "<1 БГ ЛБ" 0 0 11 16777215
"лба" 284,00 284,00 0 0 "<1 БГ ЛБ" 0 0 11 16777215
"лба" 290,20 290,20 0 0 "<1 БГ ЛБ" 0 0 11 16777215
"лба" 299,40 299,40 0 0 "<1 БГ ЛБ" 0 0 11 16777215
"лба" 309,60 309,60 0 0 "<1 БГ ЛБ" 0 0 11 16777215
"лба" 319,80 319,80 0 0 "<1 БГ ЛБ" 0 0 11 16777215
"лба" 331,60 331,60 0 0 "<1 БГ ЛБ" 0 0 11 16777215
"лба" 341,00 341,00 0 0 "<1 БГ ЛБ" 0 0 11 16777215
"лба" 351,40 351,40 0 0 "<1 БГ ЛБ" 0 0 11 16777215
"лба" 359,40 359,40 0 0 "<1 БГ ЛБ" 0 0 11 16777215
"лба" 370,60 370,60 0 0 "<1 БГ ЛБ" 0 0 11 16777215
"лба" 380,80 380,80 0 0 "<1 БГ ЛБ" 0 0 11 16777215
"лба" 397,80 397,80 0 0 "<1 БГ ЛБ" 0 0 11 16777215
"лба" 415,80 415,80 0 0 "<1 БГ ЛБ" 0 0 11 16777215
"лба" 438,20 438,20 0 0 "<1 БГ ЛБ" 0 0 11 16777215
"лба" 461,00 461,00 0 0 "<1 БГ ЛБ" 0 0 11 16777215
"лба" 485,60 485,60 0 0 "<1 БГ ЛБ" 0 0 11 16777215
"лба" 501,40 501,40 0 0 "<1 БГ ЛБ" 0 0 11 16777215
"лба" 516,80 516,80 0 0 "<1 БГ ЛБ" 0 0 11 16777215
"лба" 531,40 531,40 0 0 "<1 БГ ЛБ" 0 0 11 16777215
"лба" 543,40 543,40 0 0 "<1 БГ ЛБ" 0 0 11 16777215
"лба" 552,40 552,40 0 0 "<1 БГ ЛБ" 0 0 11 16777215
"лба" 559,20 559,20 0 0 "<1 БГ ЛБ" 0 0 11 16777215
"лба" 566,60 566,60 0 0 "<1 БГ ЛБ" 0 0 11 16777215
"лба" 568,90 580,00 0 0 "нет нет нет" 0 0 11 16777215
"лба" 580,00 590,00 0 0 "нет нет нет" 0 0 11 16777215
"лба" 590,00 600,00 0 0 "нет нет нет" 0 0 11 16777215
"лба" 600,00 640,00 0 0 "нет нет нет" 0 0 11 16777215
"лба" 640,00 660,00 0 0 "нет нет нет" 0 0 11 16777215
"лба" 660,00 680,00 0 0 "нет нет нет" 0 0 11 16777215
"лба" 680,20 700,00 0 0 "нет нет нет" 0 0 11 16777215
"сумм_газ" 516,80 516,80 1176749486 0 "Проверка хроматографа" 0 0 10 16777215

# ------------------ ЗНАЧЕНИЯ КРИВЫХ ------------------ #
~ASCII Log Data
   0.2 1176082824.   12.700   12.23    0.000   -0.204    0.71   -0.06   63.95   -0.60    0.00    0.00    1.404    1.2090    1.3240   28.08   24.17   26.48    0.   78.73    0.18    6.20    0.000000    0.000000    0.000000    0.000000    0.000000    0.000000    0.000000    0.00    0.00    0.00    0.00    0.00    0.   78.73   78.7    0.    0.    0.00    0.000    0.00    0.0    0.00    0.00    0.00    0.00    0.    0. -32768. -32768. -32768. -32768. -32768. -32768. -32768. -32768. -32768. -32768. -32768.
   0.4 1176083929.   12.640   12.26    0.000   -0.136    0.79   -0.07   72.13   -0.45    0.00    0.00    1.403    1.2070    1.3230   28.06   24.15   26.46    0.   78.66    1.78    3.70    0.000000    0.000000    0.000000    0.000000    0.000000    0.000000    0.000000    0.00    0.00    0.00    0.00    0.00    0.   78.66   78.7    0.    0.    0.00    0.000    0.00    0.0   -1.00    0.00    0.00    0.00    0.    0.   -1.00 -32768. -32768. -32768. -32768. -32768. -32768. -32768. -32768. -32768. -32768.
   0.5 1176083930.   15.000   12.24    0.000    0.000    0.74   -0.07   61.60   -0.43    0.00    0.00    1.405    1.2130    1.3260   28.11   24.26   26.52    0.   78.89  336.00   15.20    0.000000    0.000000    0.000000    0.000000    0.000000    0.000000    0.000000    0.00    0.00    0.00    0.00    0.00    0.   78.89   78.9    0.    0.    0.00    0.000    0.00    0.0   -1.00    0.00    0.00    0.00    0.    0.   -1.00 -32768. -32768. -32768. -32768. -32768. -32768. -32768. -32768. -32768. -32768.
   0.8 1176083934.   14.910   12.25    0.000    0.136    0.74   -0.07   65.88   -0.45    0.00    0.00    1.405    1.2130    1.3260   28.11   24.26   26.52    0.   78.89  180.00   20.60    0.000000    0.000000    0.000000    0.000000    0.000000    0.000000    0.000000    0.00    0.00    0.00    0.00    0.00    0.   78.89   78.9    0.    0.    0.00    0.000    0.00    0.0   -1.00    0.00    0.00    0.00    0.    0.   -1.00 -32768. -32768. -32768. -32768. -32768. -32768. -32768. -32768. -32768. -32768.
   1.0 1176083937.   14.640   12.24    0.000    0.204    0.74   -0.07   67.04   -0.45    0.00    0.00    1.405    1.2130    1.3260   28.10   24.26   26.53    0.   78.89  320.00   36.67    0.000000    0.000000    0.000000    0.000000    0.000000    0.000000    0.000000    0.00    0.00    0.00    0.00    0.00    0.   78.89   78.9    0.    0.    0.00    0.000    0.00    0.0   -1.00    0.00    0.00    0.00    0.    0.   -1.00 -32768. -32768. -32768. -32768. -32768. -32768. -32768. -32768. -32768. -32768.
   1.1 1176083938.   14.390   12.26    0.000    0.340    0.73   -0.07   67.77   -0.45    0.00    0.00    1.405    1.2130    1.3270   28.11   24.24   26.53    0.   78.88  504.00   51.60    0.000000    0.000000    0.000000    0.000000    0.000000    0.000000    0.000000    0.00    0.00    0.00    0.00    0.00    0.   78.88   78.9    0.    0.    0.00    0.000    0.00    0.0   -1.00   -1.00    0.00    0.00    0.    0.   -1.00 -32768. -32768. -32768. -32768. -32768. -32768. -32768. -32768. -32768. -32768.
   1.4 1176083940.   14.150   12.24    0.000    0.340    0.73   -0.07   66.61   -0.44    0.00    0.00    1.405    1.2130    1.3270   28.11   24.25   26.53    0.   78.89  588.00   66.20    0.000000    0.000000    0.000000    0.000000    0.000000    0.000000    0.000000    0.00    0.00    0.00    0.00    0.00    0.   78.89   78.9    0.    0.    0.00    0.000    0.00    0.0   -1.00   -1.00    0.00    0.00    0.    0.   -1.00 -32768. -32768. -32768. -32768. -32768. -32768. -32768. -32768. -32768. -32768.
   1.6 1176083941.   13.930   12.24    0.000    0.612    0.72   -0.07   64.56   -0.43    0.00    0.00    1.405    1.2120    1.3260   28.11   24.25   26.53    0.   78.89  504.00   79.60    0.000000    0.000000    0.000000    0.000000    0.000000    0.000000    0.000000    0.00    0.00    0.00    0.00    0.00    0.   78.89   78.9    0.    0.    0.00    0.000    0.00    0.0   -1.00   -1.00    0.00    0.00    0.    0.   -1.00 -32768. -32768. -32768. -32768. -32768. -32768. -32768. -32768. -32768. -32768.
   1.7 1176083942.   13.790   12.24    0.000    0.544    0.72   -0.06   69.53   -0.42    0.00    0.00    1.405    1.2110    1.3250   28.10   24.24   26.52    0.   78.86  480.00   87.60    0.000000    0.000000    0.000000    0.000000    0.000000    0.000000    0.000000    0.00    0.00    0.00    0.00    0.00    0.   78.86   78.9    0.    0.    0.00    0.000    0.00    0.0   -1.00   -1.00    0.00    0.00    0.    0.   -1.00 -32768. -32768. -32768. -32768. -32768. -32768. -32768. -32768. -32768. -32768.
   2.0 1176083944.   13.610   12.24    0.000    0.544    0.72   -0.06   64.51   -0.44    0.00    0.00    1.404    1.2090    1.3240   28.09   24.21   26.50    0.   78.80  444.00   98.60    0.000000    0.000000    0.000000    0.000000    0.000000    0.000000    0.000000    0.00    0.00    0.00    0.00    0.00    0.   78.80   78.8    0.    0.    0.00    0.000    0.00    0.0   -1.00   -1.00    0.00    0.00    0.    0.   -1.00 -32768. -32768. -32768. -32768. -32768. -32768. -32768. -32768. -32768. -32768.
   2.1 1176083945.   13.420   12.22    0.000    0.476    0.73   -0.06   64.15   -0.45    0.00    0.00    1.404    1.2080    1.3240   28.08   24.18   26.48    0.   78.74  456.00  110.00    0.000000    0.000000    0.000000    0.000000    0.000000    0.000000    0.000000    0.00    0.00    0.00    0.00    0.00    0.   78.74   78.7    0.    0.    0.00    0.000    0.00    0.0   -1.00   -1.00    0.00    0.00    0.    0.   -1.00 -32768. -32768. -32768. -32768. -32768. -32768. -32768. -32768. -32768. -32768.
   2.4 1176083947.   13.210   12.24    0.000    0.408    0.72   -0.06   65.52   -0.46    0.00    0.00    1.404    1.2080    1.3240   28.07   24.16   26.47    0.   78.71  480.00  122.40    0.000000    0.000000    0.000000    0.000000    0.000000    0.000000    0.000000    0.00    0.00    0.00    0.00    0.00    0.   78.71   78.7    0.    0.    0.00    0.000    0.00    0.0   -1.00   -1.00    0.00    0.00    0.    0.   -1.00 -32768. -32768. -32768. -32768. -32768. -32768. -32768. -32768. -32768. -32768.
   2.6 1176083967.   13.050   12.24    0.000    0.340    0.71   -0.06   68.12   -0.47    0.00    0.00    1.404    1.2090    1.3240   28.08   24.18   26.48    0.   78.74   24.00  132.17    0.000000    0.000000    0.000000    0.000000    0.000000    0.000000    0.000000    0.00    0.00    0.00    0.00    0.00    0.   78.74   78.7    0.    0.    0.00    0.000    0.00    0.0   -1.00   -1.00    0.00    0.00    0.    0.   -1.00 -32768. -32768. -32768. -32768. -32768. -32768. -32768. -32768. -32768. -32768.
   2.8 1176083985.   12.930   12.22    0.000    0.272    0.69   -0.06   63.77   -0.45    0.00    0.00    1.404    1.2090    1.3250   28.08   24.18   26.49    0.   78.76   40.00  139.27    0.000000    0.000000    0.000000    0.000000    0.000000    0.000000    0.000000    0.00    0.00    0.00    0.00    0.00    0.   78.76   78.8    0.    0.    0.00    0.000    0.00    0.0   -1.00   -1.00    0.00    0.00    0.    0.   -1.00 -32768. -32768. -32768. -32768. -32768. -32768. -32768. -32768. -32768. -32768.
   3.0 1176084003.   12.690   12.22    0.000    0.272    0.67   -0.06   62.26   -0.46    0.00    0.00    1.404    1.2100    1.3250   28.09   24.19   26.50    0.   78.77   40.00  118.15    0.000000    0.000000    0.000000    0.000000    0.000000    0.000000    0.000000    0.00    0.00    0.00    0.00    0.00    0.   78.77   78.8    0.    0.    0.00    0.000    0.00    0.0   -1.00   -1.00    0.00    0.00    0.    0.   -1.00 -32768. -32768. -32768. -32768. -32768. -32768. -32768. -32768. -32768. -32768.
   3.2 1176084153.   12.500   12.21    0.000    0.272    0.64   -0.05   65.32   -0.50    0.00    0.00    1.405    1.2110    1.3260   28.10   24.21   26.51    0.   78.82    4.56   24.02    0.000000    0.000000    0.000000    0.000000    0.000000    0.000000    0.000000    0.00    0.00    0.00    0.00    0.00    0.   78.82   78.8    0.    0.    0.00    0.000    0.00    0.0   -1.00   -1.00    0.00    0.00    0.    0.   -1.00 -32768. -32768. -32768. -32768. -32768. -32768. -32768. -32768. -32768. -32768.
