# ------- LAS файл, созданный программой "GeoData" ------- #

~Version  information
# ---------------- ИНФОРМАЦИЯ О LAS-ФАЙЛЕ ---------------- #
VERS.                               1.20: CWLS log ASCII Standart - VERSION 1.20
WRAP.                                 NO: One line per depth step

~Well
# ----------------- ЗНАЧЕНИЯ ПАРАМЕТРОВ ------------------ #
NULL.                          -32768.00: Нулевое значение
WELL.                               WELL: 305
FLD .                              FIELD: Луза
STRT.M                              0,20: First depth
STOP.M                           1060,60: Last depth
STEP.M                              0.20: Depth increment
DATE.                           LOG_DATE: 
SRVC.                    SERVICE_COMPANY: 
COMP.                            COMPANY: 
CUST.                           CUSTOMER: 
CNTY.                            COUNTRY: 
METD.                             METHOD: 
DPST.                            DEPOSIT: 
STTP.                        тип_станции: 
GTIP.                         партия_ГТИ: 
CHTP.                   тип_хроматографа: 
GRMT.                   начальник_отряда: 
BOSS.                   начальник_партии: 
DRLM.                        вид_бурения: 
PERS.                          операторы: 
OTR .                       номер_отряда: 
PRJD.M                   проектный_забой: 0,0
ALTR.M                  альтитуда_ротора: 0,0
WDIM.MM                 диаметр_скважины: 0,0
KDIM.MM               диаметр_кондуктора: 0,0
BKND.                  башмак_кондуктора: 0,0
KUST.                               Куст: 

~Curve
# ------------------- НАЗВАНИЯ КРИВЫХ -------------------- #
DEPT.м                                  : Глубина
TIME.                                   : Время
тальблок.м                              : Положение тальблока
вес_на_крюке.т                          : Вес на крюке
нагрузка.т.                             : Нагрузка на долото
момент_ротора.кН*м                      : Крутящий момент ротора
давление_на_входе.атм.                  : Давление ПЖ на входе
расход_на_входе.л/с                     : Расход ПЖ на входе
обороты_ротора.об/мин                   : Обороты ротора
температура_на_выходе.°С                : Температура на выходе
ходы_насоса1.ход/мин                    : Ходы насоса-1
ходы_насоса2.ход/мин                    : Ходы насоса-2
уровень_в_емкости.м                     : Уровень-1
уровень_в_емкости2.м                    : Уровень-2
уровень_в_емкости3.м                    : Уровень-3
объем_в_емкости1.м3                     : Объём-1
объем_в_емкости2.м3                     : Объём-2
объем_в_емкости3.м3                     : Объём-3
глубина_над_забоем.м                    : Глубина над забоем
объем_актив_емкости.м3                  : Объем ПЖ в активн.ёмкостях
скорость_механическая.м/ч               : Скорость механическая
скорость_бурения.м/ч                    : Скорость бурения
сумм_газ.%                              : Сумма газов хром.
метан_абс.%                             : Метан абс.
этан_абс.%                              : Этан абс.
пропан_абс.%                            : Пропан абс.
бутан_абс.%                             : Бутан абс.
пентан_абс.%                            : Пентан абс.
гексан_абс.%                            : Гексан абс.
метан_отн.%                             : Метан отн.
этан_отн.%                              : Этан отн.
пропан_отн.%                            : Пропан отн.
бутан_отн.%                             : Бутан отн.
пентан_отн.%                            : Пентан отн.
гексан_отн.%                            : Гексан отн.
объем_емкости.м3                        : Объем ПЖ в емкостях
объем_раствора.м3                       : Общий V раствора
PLOT.г/см3                              : Плот.пор.
POR .                                   : Пористость
CLCT.%                                  : Кальцит
DLMT.%                                  : Доломит
NO  .%                                  : Н.О.
LITO.                                   : Литология
SHL2.                                   : Шлам-2
SHL3.                                   : Шлам-3
SHL4.                                   : Шлам-4
SHL5.                                   : Шлам-5
SHL6.                                   : Шлам-6
nfst.                                   : Нефтенасыщенность
shl1.                                   : shl1
F1  .%                                  : Ф1
F2  .%                                  : Ф2
F3  .%                                  : Ф3
F4  .%                                  : Ф4
F5  .%                                  : Ф5
F6  .%                                  : Ф6
F7  .%                                  : Ф7
расход_на_выходе.%                      : Расход ПЖ на выходе
дмк .мин/м                              : ДМК
параметр1.атм                           : Параметр - 1

~Other Information
# --------------------- ТЕКСТОВЫЕ ДАННЫЕ --------------------- #
"лба" 22,40 22,40 0 0 "<1 БГ ЛБ" 0 0 11 16777215
"лба" 39,60 39,60 0 0 "<1 БГ ЛБ" 0 0 11 16777215
"лба" 58,40 58,40 0 0 "<1 БГ ЛБ" 0 0 11 16777215
"лба" 78,80 78,80 0 0 "<1 БГ ЛБ" 0 0 11 16777215
"лба" 99,20 99,20 0 0 "<1 БГ ЛБ" 0 0 11 16777215
"лба" 114,80 114,80 0 0 "<1 БГ ЛБ" 0 0 11 16777215
"лба" 131,00 131,00 0 0 "<1 БГ ЛБ" 0 0 11 16777215
"лба" 146,40 146,40 0 0 "<1 БГ ЛБ" 0 0 11 16777215
"лба" 163,20 163,20 0 0 "<1 БГ ЛБ" 0 0 11 16777215
"лба" 181,20 181,20 0 0 "<1 БГ ЛБ" 0 0 11 16777215
"лба" 197,20 197,20 0 0 "<1 БГ ЛБ" 0 0 11 16777215
"лба" 211,00 211,00 0 0 "<1 БГ ЛБ" 0 0 11 16777215
"лба" 221,80 221,80 0 0 "<1 БГ ЛБ" 0 0 11 16777215
"лба" 234,00 234,00 0 0 "<1 БГ ЛБ" 0 0 11 16777215
"лба" 246,80 246,80 0 0 "<1 БГ ЛБ" 0 0 11 16777215
"лба" 259,60 259,60 0 0 "<1 БГ ЛБ" 0 0 11 16777215
"лба" 268,60 268,60 0 0 "<1 БГ ЛБ" 0 0 11 16777215
"лба" 278,00 278,00 0 0 "<1 БГ ЛБ" 0 0 11 16777215
"лба" 284,00 284,00 0 0 "<1 БГ ЛБ" 0 0 11 16777215
"лба" 290,20 290,20 0 0 "<1 БГ ЛБ" 0 0 11 16777215
"лба" 299,40 299,40 0 0 "<1 БГ ЛБ" 0 0 11 16777215
"лба" 309,60 309,60 0 0 "<1 БГ ЛБ" 0 0 11 16777215
"лба" 319,80 319,80 0 0 "<1 БГ ЛБ" 0 0 11 16777215
"лба" 331,60 331,60 0 0 "<1 БГ ЛБ" 0 0 11 16777215
"лба" 341,00 341,00 0 0 "<1 БГ ЛБ" 0 0 11 16777215
"лба" 351,40 351,40 0 0 "<1 БГ ЛБ" 0 0 11 16777215
"лба" 359,40 359,40 0 0 "<1 БГ ЛБ" 0 0 11 16777215
"лба" 370,60 370,60 0 0 "<1 БГ ЛБ" 0 0 11 16777215
"лба" 380,80 380,80 0 0 "<1 БГ ЛБ" 0 0 11 16777215
"лба" 397,80 397,80 0 0 "<1 БГ ЛБ" 0 0 11 16777215
"лба" 415,80 415,80 0 0 "<1 БГ ЛБ" 0 0 11 16777215
"лба" 438,20 438,20 0 0 "<1 БГ ЛБ" 0 0 11 16777215
"лба" 461,00 461,00 0 0 "<1 БГ ЛБ" 0 0 11 16777215
"лба" 485,60 485,60 0 0 "<1 БГ ЛБ" 0 0 11 16777215
"лба" 501,40 501,40 0 0 "<1 БГ ЛБ" 0 0 11 16777215
"лба" 516,80 516,80 0 0 "<1 БГ ЛБ" 0 0 11 16777215
"лба" 531,40 531,40 0 0 "<1 БГ ЛБ" 0 0 11 16777215
"лба" 543,40 543,40 0 0 "<1 БГ ЛБ" 0 0 11 16777215
"лба" 552,40 552,40 0 0 "<1 БГ ЛБ" 0 0 11 16777215
"лба" 559,20 559,20 0 0 "<1 БГ ЛБ" 0 0 11 16777215
"лба" 566,60 566,60 0 0 "<1 БГ ЛБ" 0 0 11 16777215
"лба" 568,90 580,00 0 0 "нет нет нет" 0 0 11 16777215
"лба" 580,00 590,00 0 0 "нет нет нет" 0 0 11 16777215
"лба" 590,00 600,00 0 0 "нет нет нет" 0 0 11 16777215
"лба" 600,00 640,00 0 0 "нет нет нет" 0 0 11 16777215
"лба" 640,00 660,00 0 0 "нет нет нет" 0 0 11 16777215
"лба" 660,00 680,00 0 0 "нет нет нет" 0 0 11 16777215
"лба" 680,20 700,00 0 0 "нет нет нет" 0 0 11 16777215
"сумм_газ" 516,80 516,80 1176749486 0 "Проверка хроматографа" 0 0 10 16777215

# ------------------ ЗНАЧЕНИЯ КРИВЫХ ------------------ #
~ASCII Log Data
# ...
 281.6 1176628045.    9.075   18.38    6.508    1.676   35.55   32.36   57.39   24.69   56.63   -0.05    1.170    0.8568    0.4030   23.40   17.14    8.06    0.   48.60   22.71   20.98    0.000205    0.000118    0.000027    0.000021    0.000022    0.000017    0.000000   57.56   13.17   10.24   10.73    8.29    0.   48.60   75.4    0.    0.    5.00    0.000   95.00    3.0    4.10    5.10    8.20    0.00    0.    0.    3.70    0.    0.    0.    0.    0.    0.    0.   32.59    2.642   -8.86
 281.8 1176628086.    8.868   18.19    6.699    1.569   35.30   32.67   57.73   24.61   58.39   -0.05    1.170    0.8569    0.4029   23.40   17.14    8.06    0.   48.60   17.55   20.03    0.000192    0.000105    0.000030    0.000021    0.000019    0.000017    0.000000   54.69   15.62   10.94    9.90    8.85    0.   48.60   75.5    0.    0.    5.00    0.000   95.00    3.0    4.10    5.10    8.20    0.00    0.    0.    3.70    0.    0.    0.    0.    0.    0.    0.   32.55    3.420   -9.76
 282.0 1176628120.    8.671   18.11    6.782    1.935   36.28   32.54   58.08   24.68   57.36   -0.07    1.170    0.8572    0.4030   23.40   17.14    8.06    0.   48.60   20.28   19.25    0.000209    0.000099    0.000036    0.000027    0.000031    0.000016    0.000000   47.37   17.22   12.92   14.83    7.66    0.   48.60   75.5    0.    0.    5.00    0.000   95.00    5.0    4.10    5.10    8.20    0.00    0.    0.    3.70    0.    0.    0.    0.    0.    0.    0.   32.54    2.959  -11.05
 282.2 1176628157.    8.480   18.51    6.381    1.673   35.50   32.73   57.39   24.71   56.21   -0.08    1.170    0.8567    0.4030   23.40   17.13    8.06    0.   48.59   19.44   19.86    0.000223    0.000094    0.000040    0.000032    0.000042    0.000015    0.000000   42.15   17.94   14.35   18.83    6.73    0.   48.59   75.5    0.    0.    5.00    0.000   95.00    5.0    4.10    5.10    8.20    0.00    0.    0.    3.70    0.    0.    0.    0.    0.    0.    0.   32.53    3.086  -13.57
 282.4 1176628194.    8.275   21.17    3.683    1.340   35.65   32.75   57.39   24.72   57.72   -0.09    1.170    0.8592    0.4029   23.40   17.19    8.06    0.   48.65   19.44   19.61    0.000208    0.000085    0.000043    0.000030    0.000035    0.000015    0.000000   40.87   20.67   14.42   16.83    7.21    0.   48.65   75.6    0.    0.    5.00    0.000   95.00    5.0    4.10    5.10    8.20    0.00    0.    0.    3.70    0.    0.    0.    0.    0.    0.    0.   32.55    3.086  -14.50
 282.6 1176628230.    8.077   16.57    8.250    1.565   35.57   32.77   57.39   24.71   58.84   -0.08    1.170    0.8632    0.4030   23.40   17.27    8.06    0.   48.73   20.82   19.87    0.000170    0.000065    0.000048    0.000025    0.000018    0.000014    0.000000   38.24   28.24   14.71   10.59    8.24    0.   48.73   75.7    0.    0.    5.00    0.000   95.00    5.0    4.10    5.10    8.20    0.00    0.    0.    3.70    0.    0.    0.    0.    0.    0.    0.   32.57    2.882  -15.00
 282.8 1176628263.    7.869   10.90   13.995    1.643   35.50   32.76   56.70   24.71   56.98   -0.08    1.170    0.8610    0.4030   23.40   17.22    8.06    0.   48.68   20.89   20.68    0.000170    0.000065    0.000048    0.000025    0.000018    0.000014    0.000000   38.24   28.24   14.71   10.59    8.24    0.   48.68   75.7    0.    0.    5.00    0.000   95.00    5.0    4.10    5.10    8.20    0.00    0.    0.    3.70    0.    0.    0.    0.    0.    0.    0.   32.60    2.872  -10.00
 283.0 1176628298.    7.674   10.47   14.417    1.565   35.54   32.75   56.70   24.73   55.77   -0.07    1.170    0.8621    0.4030   23.40   17.24    8.06    0.   48.70   20.55   21.11    0.000583    0.000493    0.000023    0.000012    0.000030    0.000025    0.000000   84.56    3.95    2.06    5.15    4.29    0.   48.70   75.7    0.    0.    5.00    0.000   95.00    5.0    4.10    5.10    8.20    0.00    0.    0.    3.70    0.    0.    0.    0.    0.    0.    0.   32.58    2.919   -9.50
 283.2 1176628331.    7.480   10.60   14.286    1.643   35.60   32.70   56.70   24.78   56.82   -0.08    1.170    0.8630    0.4030   23.40   17.26    8.06    0.   48.72   21.80   21.58    0.000583    0.000493    0.000023    0.000012    0.000030    0.000025    0.000000   84.56    3.95    2.06    5.15    4.29    0.   48.72   75.8    0.    0.    5.00    0.000   95.00    5.0    4.10    5.10    8.20    0.00    0.    0.    3.70    0.    0.    0.    0.    0.    0.    0.   32.56    2.752  -10.50
 283.4 1176628363.    7.273   10.89   14.002    1.288   35.62   32.87   57.04   24.79   58.58   -0.08    1.170    0.8603    0.4030   23.40   17.21    8.06    0.   48.66   22.48   21.82    0.000648    0.000568    0.000027    0.000010    0.000020    0.000023    0.000000   87.65    4.17    1.54    3.09    3.55    0.   48.66   75.7    0.    0.    5.00    0.000   95.00    5.0    4.10    5.10    8.20    0.00    0.    0.    3.70    0.    0.    0.    0.    0.    0.    0.   32.55    2.669  -12.89
 283.6 1176628389.    7.083   10.83   14.056    1.388   35.57   32.93   57.39   24.76   57.04   -0.06    1.170    0.8627    0.4030   23.40   17.26    8.06    0.   48.72   27.67   23.04    0.000689    0.000613    0.000030    0.000010    0.000014    0.000022    0.000000   88.97    4.35    1.45    2.03    3.19    0.   48.72   75.8    0.    0.    5.00    0.000   95.00    5.0    4.10    5.10    8.20    0.00    0.    0.    3.70    0.    0.    0.    0.    0.    0.    0.   32.52    2.168   -9.72
 283.8 1176628414.    6.887   11.09   13.800    1.424   35.50   32.81   57.39   24.71   55.80   -0.02    1.170    0.8617    0.4030   23.40   17.23    8.06    0.   48.69   29.98   25.67    0.000689    0.000613    0.000030    0.000010    0.000014    0.000022    0.000000   88.97    4.35    1.45    2.03    3.19    0.   48.69   75.8    0.    0.    5.00    0.000   95.00    3.0    4.10    5.10    8.20    0.00    0.    0.    3.70    0.    0.    0.    0.    0.    0.    0.   32.49    2.002   -9.72
 284.0 1176628444.    6.672   10.88   14.013    1.393   35.62   32.71   57.39   24.79   56.64   -0.03    1.170    0.8633    0.4029   23.40   17.26    8.06    0.   48.72   23.98   28.66    0.000629    0.000566    0.000021    0.000009    0.000014    0.000019    0.000000   89.98    3.34    1.43    2.23    3.02    0.   48.72   75.9    0.    0.    5.00    0.000   95.00    3.0    4.10    5.10    8.20    0.00    0.    0.    3.70    0.    0.    0.    0.    0.    0.    0.   32.47    2.502   -4.37
 284.2 1176628479.    6.475   10.42   14.471    1.528   35.81   32.69   57.04   24.87   58.35   -0.08    1.170    0.8611    0.4029   23.40   17.21    8.06    0.   48.67   19.70   24.60    0.000603    0.000546    0.000017    0.000009    0.000014    0.000017    0.000000   90.55    2.82    1.49    2.32    2.82    0.   48.67   75.8    0.    0.    5.00    0.000   95.00    3.0    4.10    5.10    8.20    0.00    0.    0.    3.70    0.    0.    0.    0.    0.    0.    0.   32.47    3.046  -13.25
 284.4 1176628515.    6.281   10.86   14.029    1.589   35.19   32.97   56.70   24.92   55.99   -0.05    1.170    0.8611    0.4030   23.40   17.23    8.06    0.   48.68   19.98   19.61    0.000611    0.000547    0.000021    0.000009    0.000015    0.000019    0.000000   89.53    3.44    1.47    2.45    3.11    0.   48.68   75.9    0.    0.    5.00    0.000   95.00    3.0    4.10    5.10    8.20    0.00    0.    0.    3.70    0.    0.    0.    0.    0.    0.    0.   32.49    3.003   63.50
 284.6 1176628552.    6.079   10.93   13.962    1.616   34.71   32.59   56.70   24.89   57.85    0.03    1.170    0.8631    0.4030   23.40   17.26    8.06    0.   48.72   20.25   19.58    0.000626    0.000550    0.000029    0.000008    0.000017    0.000022    0.000000   87.86    4.63    1.28    2.72    3.51    0.   48.72   75.9    0.    0.    5.00    0.000   95.00    3.0    4.10    5.10    8.20    0.00    0.    0.    3.70    0.    0.    0.    0.    0.    0.    0.   32.49    2.962   -0.24
 284.8 1176628579.    5.869   10.91   13.985    1.810   35.70   32.69   56.36   24.87   58.52   -0.03    1.170    0.8661    0.4029   23.40   17.32    8.06    0.   48.78   26.64   22.11    0.000626    0.000550    0.000029    0.000008    0.000017    0.000022    0.000000   87.86    4.63    1.28    2.72    3.51    0.   48.78   76.0    0.    0.    5.00    0.000   95.00    3.0    4.10    5.10    8.20    0.00    0.    0.    3.70    0.    0.    0.    0.    0.    0.    0.   32.52    2.252  -16.50
