# ------- LAS файл, созданный программой "GeoData" ------- #

~Version  information
# ---------------- ИНФОРМАЦИЯ О LAS-ФАЙЛЕ ---------------- #
VERS.                               1.20: CWLS log ASCII Standart - VERSION 1.20
WRAP.                                 NO: One line per depth step

~Well
# ----------------- ЗНАЧЕНИЯ ПАРАМЕТРОВ ------------------ #
NULL.                          -32768.00: Нулевое значение
WELL.                               WELL: 305
FLD .                              FIELD: Луза
STRT.M                              0,20: First depth
STOP.M                           1060,60: Last depth
STEP.M                              0.20: Depth increment
DATE.                           LOG_DATE: 
SRVC.                    SERVICE_COMPANY: 
COMP.                            COMPANY: 
CUST.                           CUSTOMER: 
CNTY.                            COUNTRY: 
METD.                             METHOD: 
DPST.                            DEPOSIT: 
STTP.                        тип_станции: 
GTIP.                         партия_ГТИ: 
CHTP.                   тип_хроматографа: 
GRMT.                   начальник_отряда: 
BOSS.                   начальник_партии: 
DRLM.                        вид_бурения: 
PERS.                          операторы: 
OTR .                       номер_отряда: 
PRJD.M                   проектный_забой: 0,0
ALTR.M                  альтитуда_ротора: 0,0
WDIM.MM                 диаметр_скважины: 0,0
KDIM.MM               диаметр_кондуктора: 0,0
BKND.                  башмак_кондуктора: 0,0
KUST.                               Куст: 

~Curve
# ------------------- НАЗВАНИЯ КРИВЫХ -------------------- #
DEPT.м                                  : Глубина
TIME.                                   : Время
тальблок.м                              : Положение тальблока
вес_на_крюке.т                          : Вес на крюке
нагрузка.т.                             : Нагрузка на долото
момент_ротора.кН*м                      : Крутящий момент ротора
давление_на_входе.атм.                  : Давление ПЖ на входе
расход_на_входе.л/с                     : Расход ПЖ на входе
обороты_ротора.об/мин                   : Обороты ротора
температура_на_выходе.°С                : Температура на выходе
ходы_насоса1.ход/мин                    : Ходы насоса-1
ходы_насоса2.ход/мин                    : Ходы насоса-2
уровень_в_емкости.м                     : Уровень-1
уровень_в_емкости2.м                    : Уровень-2
уровень_в_емкости3.м                    : Уровень-3
объем_в_емкости1.м3                     : Объём-1
объем_в_емкости2.м3                     : Объём-2
объем_в_емкости3.м3                     : Объём-3
глубина_над_забоем.м                    : Глубина над забоем
объем_актив_емкости.м3                  : Объем ПЖ в активн.ёмкостях
скорость_механическая.м/ч               : Скорость механическая
скорость_бурения.м/ч                    : Скорость бурения
сумм_газ.%                              : Сумма газов хром.
метан_абс.%                             : Метан абс.
этан_абс.%                              : Этан абс.
пропан_абс.%                            : Пропан абс.
бутан_абс.%                             : Бутан абс.
пентан_абс.%                            : Пентан абс.
гексан_абс.%                            : Гексан абс.
метан_отн.%                             : Метан отн.
этан_отн.%                              : Этан отн.
пропан_отн.%                            : Пропан отн.
бутан_отн.%                             : Бутан отн.
пентан_отн.%                            : Пентан отн.
гексан_отн.%                            : Гексан отн.
объем_емкости.м3                        : Объем ПЖ в емкостях
объем_раствора.м3                       : Общий V раствора
PLOT.г/см3                              : Плот.пор.
POR .                                   : Пористость
CLCT.%                                  : Кальцит
DLMT.%                                  : Доломит
NO  .%                                  : Н.О.
LITO.                                   : Литология
SHL2.                                   : Шлам-2
SHL3.                                   : Шлам-3
SHL4.                                   : Шлам-4
SHL5.                                   : Шлам-5
SHL6.                                   : Шлам-6
nfst.                                   : Нефтенасыщенность
shl1.                                   : shl1
F1  .%                                  : Ф1
F2  .%                                  : Ф2
F3  .%                                  : Ф3
F4  .%                                  : Ф4
F5  .%                                  : Ф5
F6  .%                                  : Ф6
F7  .%                                  : Ф7
расход_на_выходе.%                      : Расход ПЖ на выходе
дмк .мин/м                              : ДМК
параметр1.атм                           : Параметр - 1

~Other Information
# --------------------- ТЕКСТОВЫЕ ДАННЫЕ --------------------- #
"лба" 22,40 22,40 0 0 "<1 БГ ЛБ" 0 0 11 16777215
"лба" 39,60 39,60 0 0 "<1 БГ ЛБ" 0 0 11 16777215
"лба" 58,40 58,40 0 0 "<1 БГ ЛБ" 0 0 11 16777215
"лба" 78,80 78,80 0 0 "<1 БГ ЛБ" 0 0 11 16777215
"лба" 99,20 99,20 0 0 "<1 БГ ЛБ" 0 0 11 16777215
"лба" 114,80 114,80 0 0 "<1 БГ ЛБ" 0 0 11 16777215
"лба" 131,00 131,00 0 0 "<1 БГ ЛБ" 0 0 11 16777215
"лба" 146,40 146,40 0 0 "<1 БГ ЛБ" 0 0 11 16777215
"лба" 163,20 163,20 0 0 "<1 БГ ЛБ" 0 0 11 16777215
"лба" 181,20 181,20 0 0 "<1 БГ ЛБ" 0 0 11 16777215
"лба" 197,20 197,20 0 0 "<1 БГ ЛБ" 0 0 11 16777215
"лба" 211,00 211,00 0 0 "<1 БГ ЛБ" 0 0 11 16777215
"лба" 221,80 221,80 0 0 "<1 БГ ЛБ" 0 0 11 16777215
"лба" 234,00 234,00 0 0 "<1 БГ ЛБ" 0 0 11 16777215
"лба" 246,80 246,80 0 0 "<1 БГ ЛБ" 0 0 11 16777215
"лба" 259,60 259,60 0 0 "<1 БГ ЛБ" 0 0 11 16777215
"лба" 268,60 268,60 0 0 "<1 БГ ЛБ" 0 0 11 16777215
"лба" 278,00 278,00 0 0 "<1 БГ ЛБ" 0 0 11 16777215
"лба" 284,00 284,00 0 0 "<1 БГ ЛБ" 0 0 11 16777215
"лба" 290,20 290,20 0 0 "<1 БГ ЛБ" 0 0 11 16777215
"лба" 299,40 299,40 0 0 "<1 БГ ЛБ" 0 0 11 16777215
"лба" 309,60 309,60 0 0 "<1 БГ ЛБ" 0 0 11 16777215
"лба" 319,80 319,80 0 0 "<1 БГ ЛБ" 0 0 11 16777215
"лба" 331,60 331,60 0 0 "<1 БГ ЛБ" 0 0 11 16777215
"лба" 341,00 341,00 0 0 "<1 БГ ЛБ" 0 0 11 16777215
"лба" 351,40 351,40 0 0 "<1 БГ ЛБ" 0 0 11 16777215
"лба" 359,40 359,40 0 0 "<1 БГ ЛБ" 0 0 11 16777215
"лба" 370,60 370,60 0 0 "<1 БГ ЛБ" 0 0 11 16777215
"лба" 380,80 380,80 0 0 "<1 БГ ЛБ" 0 0 11 16777215
"лба" 397,80 397,80 0 0 "<1 БГ ЛБ" 0 0 11 16777215
"лба" 415,80 415,80 0 0 "<1 БГ ЛБ" 0 0 11 16777215
"лба" 438,20 438,20 0 0 "<1 БГ ЛБ" 0 0 11 16777215
"лба" 461,00 461,00 0 0 "<1 БГ ЛБ" 0 0 11 16777215
"лба" 485,60 485,60 0 0 "<1 БГ ЛБ" 0 0 11 16777215
"лба" 501,40 501,40 0 0 "<1 БГ ЛБ" 0 0 11 16777215
"лба" 516,80 516,80 0 0 "<1 БГ ЛБ" 0 0 11 16777215
"лба" 531,40 531,40 0 0 "<1 БГ ЛБ" 0 0 11 16777215
"лба" 543,40 543,40 0 0 "<1 БГ ЛБ" 0 0 11 16777215
"лба" 552,40 552,40 0 0 "<1 БГ ЛБ" 0 0 11 16777215
"лба" 559,20 559,20 0 0 "<1 БГ ЛБ" 0 0 11 16777215
"лба" 566,60 566,60 0 0 "<1 БГ ЛБ" 0 0 11 16777215
"лба" 568,90 580,00 0 0 "нет нет нет" 0 0 11 16777215
"лба" 580,00 590,00 0 0 "нет нет нет" 0 0 11 16777215
"лба" 590,00 600,00 0 0 "нет нет нет" 0 0 11 16777215
"лба" 600,00 640,00 0 0 "нет нет нет" 0 0 11 16777215
"лба" 640,00 660,00 0 0 "нет нет нет" 0 0 11 16777215
"лба" 660,00 680,00 0 0 "нет нет нет" 0 0 11 16777215
"лба" 680,20 700,00 0 0 "нет нет нет" 0 0 11 16777215
"сумм_газ" 516,80 516,80 1176749486 0 "Проверка хроматографа" 0 0 10 16777215

# ------------------ ЗНАЧЕНИЯ КРИВЫХ ------------------ #
~ASCII Log Data
# ...
1056.0 1178150473.    3.269   45.98   12.220    2.035   62.85   37.29  152.61   27.97   61.78   -2.34    1.414    1.1797    0.6539   28.28   23.59   13.09    0.   64.96    7.71    7.99    0.000064    0.000001    0.000028    0.000007    0.000014    0.000014    0.000000    1.56   43.75   10.94   21.88   21.88    0.   64.96  186.1    0.    0.    0.00    0.000    0.00    0.0    0.00    0.00    0.00    0.00    0.    0.    0.00    0.    0.    0.    0.    0.    0.    0.  117.18    7.786  -34.84
1056.2 1178150564.    3.158   46.47   11.925    2.009   63.55   37.37  152.93   27.99   61.66   -2.33    1.415    1.1692    0.6375   28.30   23.39   12.75    0.   64.44    9.10    8.23    0.000066    0.000001    0.000021    0.000009    0.000017    0.000018    0.000000    1.52   31.82   13.64   25.76   27.27    0.   64.44  185.6    0.    0.    0.00    0.000    0.00    0.0    0.00    0.00    0.00    0.00    0.    0.    0.00    0.    0.    0.    0.    0.    0.    0.  117.16    6.590  -35.05
1056.4 1178150671.    2.954   45.90   12.099    2.036   63.00   37.62  153.36   28.00   61.79   -2.32    1.415    1.1589    0.6329   28.30   23.18   12.66    0.   64.15    7.82    8.85    0.000083    0.000001    0.000022    0.000009    0.000034    0.000017    0.000000    1.20   26.51   10.84   40.96   20.48    0.   64.15  185.4    0.    0.    0.00    0.000    0.00    0.0    0.00    0.00    0.00    0.00    0.    0.    0.00    0.    0.    0.    0.    0.    0.    0.  117.13    7.674  -34.84
1056.6 1178150766.    2.758   46.05   11.907    1.999   63.07   37.64  153.43   27.97   61.84   -2.30    1.415    1.1454    0.6019   28.30   22.91   12.04    0.   63.26    8.77    8.45    0.000091    0.000001    0.000038    0.000009    0.000022    0.000021    0.000000    1.10   41.76    9.89   24.18   23.08    0.   63.26  184.5    0.    0.    0.00    0.000    0.00    0.0    0.00    0.00    0.00    0.00    0.    0.    0.00    0.    0.    0.    0.    0.    0.    0.  117.14    6.840  -34.99
1056.8 1178150831.    2.592   45.68   12.220    2.038   62.99   37.51  153.29   27.89   61.75   -2.29    1.415    1.1388    0.6013   28.30   22.78   12.03    0.   63.11    7.71    9.06    0.000114    0.000001    0.000038    0.000016    0.000034    0.000025    0.000000    0.88   33.33   14.04   29.82   21.93    0.   63.11  184.4    0.    0.    0.00    0.000    0.00    0.0    0.00    0.00    0.00    0.00    0.    0.    0.00    0.    0.    0.    0.    0.    0.    0.  117.20    7.786  -34.78
1057.0 1178150936.    2.447   45.41   12.431    2.076   63.58   37.54  153.12   27.95   61.79   -2.22    1.415    1.1251    0.5983   28.31   22.51   11.97    0.   62.78    7.90    8.22    0.000103    0.000001    0.000027    0.000013    0.000037    0.000025    0.000000    0.97   26.21   12.62   35.92   24.27    0.   62.78  184.1    0.    0.    0.00    0.000    0.00    0.0    0.00    0.00    0.00    0.00    0.    0.    0.00    0.    0.    0.    0.    0.    0.    0.  117.22    7.591  -35.12
1057.2 1178151003.    2.280   45.86   11.918    2.099   62.17   37.63  153.46   27.94   61.83   -2.31    1.415    1.1097    0.5722   28.31   22.20   11.45    0.   61.95    6.94    7.47    0.000098    0.000001    0.000028    0.000021    0.000020    0.000028    0.000000    1.02   28.57   21.43   20.41   28.57    0.   61.95  183.3    0.    0.    0.00    0.000    0.00    0.0    0.00    0.00    0.00    0.00    0.    0.    0.00    0.    0.    0.    0.    0.    0.    0.  117.23    8.645  -34.53
1057.4 1178151068.    2.241   45.79   12.092    2.176   62.32   37.74  153.56   27.86   61.89   -2.30    1.416    1.0993    0.5658   28.31   21.99   11.32    0.   61.62    7.19    7.62    0.000103    0.000001    0.000029    0.000019    0.000022    0.000032    0.000000    0.97   28.16   18.45   21.36   31.07    0.   61.62  183.0    0.    0.    0.00    0.000    0.00    0.0    0.00    0.00    0.00    0.00    0.    0.    0.00    0.    0.    0.    0.    0.    0.    0.  117.22    8.342  -34.93
1057.5 1178151141.    2.132   45.50   12.319    1.988   63.57   37.51  153.62   27.82   61.92   -2.32    1.416    1.0929    0.5520   28.31   21.86   11.05    0.   61.22    7.19    7.14    0.000094    0.000001    0.000029    0.000007    0.000028    0.000029    0.000000    1.06   30.85    7.45   29.79   30.85    0.   61.22  182.6    0.    0.    0.00    0.000    0.00    0.0    0.00    0.00    0.00    0.00    0.    0.    0.00    0.    0.    0.    0.    0.    0.    0.  117.29    8.342  -35.21
1057.7 1178151188.    2.034   45.49   11.865    1.929   62.89   37.59  152.87   27.91   61.83   -2.35    1.416    1.0894    0.5461   28.31   21.80   10.93    0.   61.04    6.85    7.89    0.000079    0.000001    0.000033    0.000006    0.000024    0.000015    0.000000    1.27   41.77    7.59   30.38   18.99    0.   61.04  182.4    0.    0.    0.00    0.000    0.00    0.0    0.00    0.00    0.00    0.00    0.    0.    0.00    0.    0.    0.    0.    0.    0.    0.  117.23    8.759  -35.03
1058.0 1178151313.    1.890   45.78   11.549    2.042   62.61   37.60  153.32   27.94   61.76   -2.32    1.415    1.0751    0.5291   28.31   21.51   10.58    0.   60.39    6.72    6.73    0.000064    0.000001    0.000015    0.000009    0.000015    0.000024    0.000000    1.56   23.44   14.06   23.44   37.50    0.   60.39  181.8    0.    0.    0.00    0.000    0.00    0.0    0.00    0.00    0.00    0.00    0.    0.    0.00    0.    0.    0.    0.    0.    0.    0.  117.25    8.926  -34.84
1058.2 1178151379.    1.733   44.42   12.350    2.109   62.64   37.44  153.03   27.85   61.86   -2.30    1.415    1.0635    0.5287   28.30   21.27   10.57    0.   60.15    6.42    7.62    0.000064    0.000001    0.000016    0.000008    0.000016    0.000023    0.000000    1.56   25.00   12.50   25.00   35.94    0.   60.15  181.6    0.    0.    0.00    0.000    0.00    0.0    0.00    0.00    0.00    0.00    0.    0.    0.00    0.    0.    0.    0.    0.    0.    0.  117.30    9.343  -34.28
1058.4 1178151450.    1.636   45.17   12.827    2.063   63.96   37.53  153.08   27.84   61.51   -2.32    1.415    1.0579    0.5135   28.30   21.16   10.27    0.   59.73    6.59    6.99    0.000081    0.000001    0.000023    0.000006    0.000022    0.000029    0.000000    1.23   28.40    7.41   27.16   35.80    0.   59.73  181.2    0.    0.    0.00    0.000    0.00    0.0    0.00    0.00    0.00    0.00    0.    0.    0.00    0.    0.    0.    0.    0.    0.    0.  117.30    9.100  -34.57
1058.5 1178151519.    1.529   46.04   12.159    2.008   62.31   37.65  153.16   27.80   61.85   -2.31    1.415    1.0471    0.5107   28.30   20.95   10.21    0.   59.46    6.59    6.65    0.000080    0.000001    0.000030    0.000007    0.000017    0.000025    0.000000    1.25   37.50    8.75   21.25   31.25    0.   59.46  180.9    0.    0.    0.00    0.000    0.00    0.0    0.00    0.00    0.00    0.00    0.    0.    0.00    0.    0.    0.    0.    0.    0.    0.  117.30    9.100  -34.69
1058.7 1178151585.    1.425   46.31   11.637    1.971   62.54   37.56  153.30   27.77   61.80   -2.32    1.375    1.0727    0.5107   27.52   21.44   10.21    0.   59.17    6.71    7.04    0.000061    0.000001    0.000017    0.000007    0.000017    0.000019    0.000000    1.64   27.87   11.48   27.87   31.15    0.   59.17  180.7    0.    0.    0.00    0.000    0.00    0.0    0.00    0.00    0.00    0.00    0.    0.    0.00    0.    0.    0.    0.    0.    0.    0.  117.37    8.948  -34.76
1059.0 1178151702.    1.277   45.49   12.167    2.039   62.83   37.61  153.24   27.64   61.76   -2.17    1.219    1.1354    0.5108   24.41   22.72   10.21    0.   57.35    6.90    6.75    0.000069    0.000001    0.000021    0.000006    0.000015    0.000026    0.000000    1.45   30.43    8.70   21.74   37.68    0.   57.35  178.9    0.    0.    0.00    0.000    0.00    0.0    0.00    0.00    0.00    0.00    0.    0.    0.00    0.    0.    0.    0.    0.    0.    0.  117.02    8.693  -35.39
1059.2 1178151752.    1.145   45.68   12.026    1.997   63.38   37.41  153.31   27.73   62.04   -2.00    1.066    1.0933    0.5106   21.34   22.12   10.21    0.   53.67    6.90    6.83    0.000077    0.000001    0.000028    0.000008    0.000015    0.000025    0.000000    1.30   36.36   10.39   19.48   32.47    0.   53.67  175.2    0.    0.    0.00    0.000    0.00    0.0    0.00    0.00    0.00    0.00    0.    0.    0.00    0.    0.    0.    0.    0.    0.    0.  115.78    8.693  -35.44
