# ------- LAS файл, созданный программой "GeoData" ------- #

~Version  information
# ---------------- ИНФОРМАЦИЯ О LAS-ФАЙЛЕ ---------------- #
VERS.                               1.20: CWLS log ASCII Standart - VERSION 1.20
WRAP.                                 NO: One line per depth step

~Well
# ----------------- ЗНАЧЕНИЯ ПАРАМЕТРОВ ------------------ #
NULL.                          -32768.00: Нулевое значение
WELL.                               WELL: 305
FLD .                              FIELD: Луза
STRT.M                              0,20: First depth
STOP.M                           1060,60: Last depth
STEP.M                              0.20: Depth increment
DATE.                           LOG_DATE: 
SRVC.                    SERVICE_COMPANY: 
COMP.                            COMPANY: 
CUST.                           CUSTOMER: 
CNTY.                            COUNTRY: 
METD.                             METHOD: 
DPST.                            DEPOSIT: 
STTP.                        тип_станции: 
GTIP.                         партия_ГТИ: 
CHTP.                   тип_хроматографа: 
GRMT.                   начальник_отряда: 
BOSS.                   начальник_партии: 
DRLM.                        вид_бурения: 
PERS.                          операторы: 
OTR .                       номер_отряда: 
PRJD.M                   проектный_забой: 0,0
ALTR.M                  альтитуда_ротора: 0,0
WDIM.MM                 диаметр_скважины: 0,0
KDIM.MM               диаметр_кондуктора: 0,0
BKND.                  башмак_кондуктора: 0,0
KUST.                               Куст: 

~Curve
# ------------------- НАЗВАНИЯ КРИВЫХ -------------------- #
DEPT.м                                  : Глубина
TIME.                                   : Время
тальблок.м                              : Положение тальблока
вес_на_крюке.т                          : Вес на крюке
нагрузка.т.                             : Нагрузка на долото
момент_ротора.кН*м                      : Крутящий момент ротора
давление_на_входе.атм.                  : Давление ПЖ на входе
расход_на_входе.л/с                     : Расход ПЖ на входе
обороты_ротора.об/мин                   : Обороты ротора
температура_на_выходе.°С                : Температура на выходе
ходы_насоса1.ход/мин                    : Ходы насоса-1
ходы_насоса2.ход/мин                    : Ходы насоса-2
уровень_в_емкости.м                     : Уровень-1
уровень_в_емкости2.м                    : Уровень-2
уровень_в_емкости3.м                    : Уровень-3
объем_в_емкости1.м3                     : Объём-1
объем_в_емкости2.м3                     : Объём-2
объем_в_емкости3.м3                     : Объём-3
глубина_над_забоем.м                    : Глубина над забоем
объем_актив_емкости.м3                  : Объем ПЖ в активн.ёмкостях
скорость_механическая.м/ч               : Скорость механическая
скорость_бурения.м/ч                    : Скорость бурения
сумм_газ.%                              : Сумма газов хром.
метан_абс.%                             : Метан абс.
этан_абс.%                              : Этан абс.
пропан_абс.%                            : Пропан абс.
бутан_абс.%                             : Бутан абс.
пентан_абс.%                            : Пентан абс.
гексан_абс.%                            : Гексан абс.
метан_отн.%                             : Метан отн.
этан_отн.%                              : Этан отн.
пропан_отн.%                            : Пропан отн.
бутан_отн.%                             : Бутан отн.
пентан_отн.%                            : Пентан отн.
гексан_отн.%                            : Гексан отн.
объем_емкости.м3                        : Объем ПЖ в емкостях
объем_раствора.м3                       : Общий V раствора
PLOT.г/см3                              : Плот.пор.
POR .                                   : Пористость
CLCT.%                                  : Кальцит
DLMT.%                                  : Доломит
NO  .%                                  : Н.О.
LITO.                                   : Литология
SHL2.                                   : Шлам-2
SHL3.                                   : Шлам-3
SHL4.                                   : Шлам-4
SHL5.                                   : Шлам-5
SHL6.                                   : Шлам-6
nfst.                                   : Нефтенасыщенность
shl1.                                   : shl1
F1  .%                                  : Ф1
F2  .%                                  : Ф2
F3  .%                                  : Ф3
F4  .%                                  : Ф4
F5  .%                                  : Ф5
F6  .%                                  : Ф6
F7  .%                                  : Ф7
расход_на_выходе.%                      : Расход ПЖ на выходе
дмк .мин/м                              : ДМК
параметр1.атм                           : Параметр - 1

~Other Information
# --------------------- ТЕКСТОВЫЕ ДАННЫЕ --------------------- #
"лба" 22,40 22,40 0 0 "<1 БГ ЛБ" 0 0 11 16777215
"лба" 39,60 39,60 0 0 "<1 БГ ЛБ" 0 0 11 16777215
"лба" 58,40 58,40 0 0 "<1 БГ ЛБ" 0 0 11 16777215
"лба" 78,80 78,80 0 0 "<1 БГ ЛБ" 0 0 11 16777215
"лба" 99,20 99,20 0 0 "<1 БГ ЛБ" 0 0 11 16777215
"лба" 114,80 114,80 0 0 "<1 БГ ЛБ" 0 0 11 16777215
"лба" 131,00 131,00 0 0 "<1 БГ ЛБ" 0 0 11 16777215
"лба" 146,40 146,40 0 0 "<1 БГ ЛБ" 0 0 11 16777215
"лба" 163,20 163,20 0 0 "<1 БГ ЛБ" 0 0 11 16777215
"лба" 181,20 181,20 0 0 "<1 БГ ЛБ" 0 0 11 16777215
"лба" 197,20 197,20 0 0 "<1 БГ ЛБ" 0 0 11 16777215
"лба" 211,00 211,00 0 0 "<1 БГ ЛБ" 0 0 11 16777215
"лба" 221,80 221,80 0 0 "<1 БГ ЛБ" 0 0 11 16777215
"лба" 234,00 234,00 0 0 "<1 БГ ЛБ" 0 0 11 16777215
"лба" 246,80 246,80 0 0 "<1 БГ ЛБ" 0 0 11 16777215
"лба" 259,60 259,60 0 0 "<1 БГ ЛБ" 0 0 11 16777215
"лба" 268,60 268,60 0 0 "<1 БГ ЛБ" 0 0 11 16777215
"лба" 278,00 278,00 0 0 "<1 БГ ЛБ" 0 0 11 16777215
"лба" 284,00 284,00 0 0 "<1 БГ ЛБ" 0 0 11 16777215
"лба" 290,20 290,20 0 0 "<1 БГ ЛБ" 0 0 11 16777215
"лба" 299,40 299,40 0 0 "<1 БГ ЛБ" 0 0 11 16777215
"лба" 309,60 309,60 0 0 "<1 БГ ЛБ" 0 0 11 16777215
"лба" 319,80 319,80 0 0 "<1 БГ ЛБ" 0 0 11 16777215
"лба" 331,60 331,60 0 0 "<1 БГ ЛБ" 0 0 11 16777215
"лба" 341,00 341,00 0 0 "<1 БГ ЛБ" 0 0 11 16777215
"лба" 351,40 351,40 0 0 "<1 БГ ЛБ" 0 0 11 16777215
"лба" 359,40 359,40 0 0 "<1 БГ ЛБ" 0 0 11 16777215
"лба" 370,60 370,60 0 0 "<1 БГ ЛБ" 0 0 11 16777215
"лба" 380,80 380,80 0 0 "<1 БГ ЛБ" 0 0 11 16777215
"лба" 397,80 397,80 0 0 "<1 БГ ЛБ" 0 0 11 16777215
"лба" 415,80 415,80 0 0 "<1 БГ ЛБ" 0 0 11 16777215
"лба" 438,20 438,20 0 0 "<1 БГ ЛБ" 0 0 11 16777215
"лба" 461,00 461,00 0 0 "<1 БГ ЛБ" 0 0 11 16777215
"лба" 485,60 485,60 0 0 "<1 БГ ЛБ" 0 0 11 16777215
"лба" 501,40 501,40 0 0 "<1 БГ ЛБ" 0 0 11 16777215
"лба" 516,80 516,80 0 0 "<1 БГ ЛБ" 0 0 11 16777215
"лба" 531,40 531,40 0 0 "<1 БГ ЛБ" 0 0 11 16777215
"лба" 543,40 543,40 0 0 "<1 БГ ЛБ" 0 0 11 16777215
"лба" 552,40 552,40 0 0 "<1 БГ ЛБ" 0 0 11 16777215
"лба" 559,20 559,20 0 0 "<1 БГ ЛБ" 0 0 11 16777215
"лба" 566,60 566,60 0 0 "<1 БГ ЛБ" 0 0 11 16777215
"лба" 568,90 580,00 0 0 "нет нет нет" 0 0 11 16777215
"лба" 580,00 590,00 0 0 "нет нет нет" 0 0 11 16777215
"лба" 590,00 600,00 0 0 "нет нет нет" 0 0 11 16777215
"лба" 600,00 640,00 0 0 "нет нет нет" 0 0 11 16777215
"лба" 640,00 660,00 0 0 "нет нет нет" 0 0 11 16777215
"лба" 660,00 680,00 0 0 "нет нет нет" 0 0 11 16777215
"лба" 680,20 700,00 0 0 "нет нет нет" 0 0 11 16777215
"сумм_газ" 516,80 516,80 1176749486 0 "Проверка хроматографа" 0 0 10 16777215

# ------------------ ЗНАЧЕНИЯ КРИВЫХ ------------------ #
~ASCII Log Data
# ...
 845.4 1177954105.    5.473   38.31   10.337    1.441   58.11   33.93  133.98   26.12   61.43   -2.49    1.035    1.6104    1.3021   20.70   32.21   26.04    0.   78.95    6.72    6.87    0.000391    0.000293    0.000035    0.000027    0.000017    0.000019    0.000000   74.94    8.95    6.91    4.35    4.86    0.   78.95  174.5    0.    0.    0.00    0.000    0.00    0.0    0.00    0.00    0.00    0.00    0.    0.    0.00    0.    0.    0.    0.    0.    0.    0.   93.21    8.924  -33.97
 845.6 1177954173.    5.266   37.16   10.832    1.562   56.92   33.69  131.62   26.10   61.45   -2.49    1.046    1.6105    1.3022   20.92   32.21   26.04    0.   79.18   10.58    9.71    0.000316    0.000215    0.000034    0.000025    0.000024    0.000018    0.000000   68.04   10.76    7.91    7.59    5.70    0.   79.18  174.7    0.    0.    0.00    0.000    0.00    0.0    0.00    0.00    0.00    0.00    0.    0.    0.00    0.    0.    0.    0.    0.    0.    0.   92.99    5.671  -34.18
 845.8 1177954243.    5.076   37.93   10.472    1.499   56.26   33.56  133.95   26.15   61.56   -2.49    1.046    1.6104    1.3021   20.92   32.21   26.04    0.   79.17   10.28   10.78    0.000309    0.000211    0.000035    0.000023    0.000023    0.000017    0.000000   68.28   11.33    7.44    7.44    5.50    0.   79.17  174.8    0.    0.    0.00    0.000    0.00    0.0    0.00    0.00    0.00    0.00    0.    0.    0.00    0.    0.    0.    0.    0.    0.    0.   92.69    5.838  -34.03
 846.0 1177954301.    4.870   37.11   10.932    1.459   56.92   33.39  132.37   26.20   61.57   -2.49    1.048    1.6104    1.3020   20.97   32.21   26.04    0.   79.22   12.19   11.46    0.000352    0.000278    0.000032    0.000012    0.000014    0.000016    0.000000   78.98    9.09    3.41    3.98    4.55    0.   79.22  174.8    0.    0.    0.00    0.000    0.00    0.0    0.00    0.00    0.00    0.00    0.    0.    0.00    0.    0.    0.    0.    0.    0.    0.   92.34    4.921  -34.15
 846.2 1177954366.    4.672   37.18   10.653    1.373   56.00   33.25  133.64   26.25   61.55   -2.49    1.057    1.6101    1.3020   21.14   32.20   26.04    0.   79.38   11.24   11.26    0.000296    0.000206    0.000021    0.000031    0.000017    0.000021    0.000000   69.59    7.09   10.47    5.74    7.09    0.   79.38  175.0    0.    0.    0.00    0.000    0.00    0.0    0.00    0.00    0.00    0.00    0.    0.    0.00    0.    0.    0.    0.    0.    0.    0.   92.02    5.338  -34.28
 846.4 1177954420.    4.460   36.79   11.117    1.494   56.09   33.21  134.40   26.26   61.64   -2.49    1.058    1.6101    1.3021   21.17   32.20   26.04    0.   79.41   13.08   13.29    0.000338    0.000177    0.000034    0.000064    0.000047    0.000016    0.000000   52.37   10.06   18.93   13.91    4.73    0.   79.41  175.1    0.    0.    0.00    0.000    0.00    0.0    0.00    0.00    0.00    0.00    0.    0.    0.00    0.    0.    0.    0.    0.    0.    0.   91.77    4.587  -34.14
 846.6 1177954485.    4.268   38.21   10.153    1.474   56.71   33.29  133.21   26.25   61.46   -2.49    1.058    1.6099    1.3021   21.17   32.20   26.04    0.   79.41   11.24   12.07    0.000312    0.000168    0.000038    0.000047    0.000043    0.000016    0.000000   53.85   12.18   15.06   13.78    5.13    0.   79.41  175.1    0.    0.    0.00    0.000    0.00    0.0    0.00    0.00    0.00    0.00    0.    0.    0.00    0.    0.    0.    0.    0.    0.    0.   91.65    5.338  -34.21
 846.8 1177954600.    4.063   39.29    8.329    1.409   57.19   33.29  134.23   26.25   61.65   -2.50    1.058    1.6098    1.3022   21.17   32.20   26.04    0.   79.41    6.20    5.65    0.000174    0.000077    0.000036    0.000015    0.000025    0.000021    0.000000   44.25   20.69    8.62   14.37   12.07    0.   79.41  175.1    0.    0.    0.00    0.000    0.00    0.0    0.00    0.00    0.00    0.00    0.    0.    0.00    0.    0.    0.    0.    0.    0.    0.   91.32    9.675  -34.18
 847.0 1177954645.    3.878   36.81   11.115    1.369   56.69   33.13  133.80   26.27   61.51   -2.50    1.063    1.6099    1.3021   21.24   32.20   26.04    0.   79.48   15.99   10.99    0.000087    0.000008    0.000032    0.000011    0.000017    0.000019    0.000000    9.20   36.78   12.64   19.54   21.84    0.   79.48  175.2    0.    0.    0.00    0.000    0.00    0.0    0.00    0.00    0.00    0.00    0.    0.    0.00    0.    0.    0.    0.    0.    0.    0.   91.19    3.753  -34.15
 847.2 1177954692.    3.671   36.32   11.440    1.398   57.22   33.24  132.49   26.28   61.58   -2.50    1.070    1.6098    1.3019   21.41   32.20   26.04    0.   79.64   15.64   16.02    0.000080    0.000009    0.000031    0.000010    0.000014    0.000016    0.000000   11.25   38.75   12.50   17.50   20.00    0.   79.64  175.4    0.    0.    0.00    0.000    0.00    0.0    0.00    0.00    0.00    0.00    0.    0.    0.00    0.    0.    0.    0.    0.    0.    0.   91.25    3.837  -33.65
 847.4 1177954739.    3.476   37.34   10.838    1.322   57.37   33.16  134.15   26.29   61.63   -2.50    1.079    1.6098    1.3020   21.58   32.20   26.04    0.   79.81   15.31   15.40    0.000111    0.000027    0.000038    0.000010    0.000019    0.000017    0.000000   24.32   34.23    9.01   17.12   15.32    0.   79.81  175.6    0.    0.    0.00    0.000    0.00    0.0    0.00    0.00    0.00    0.00    0.    0.    0.00    0.    0.    0.    0.    0.    0.    0.   91.41    3.920  -33.96
 847.6 1177954796.    3.278   38.56    9.667    1.198   56.57   33.19  133.49   26.31   61.58   -2.48    1.107    1.6100    1.3021   22.14   32.20   26.04    0.   80.38   12.62   13.45    0.000134    0.000042    0.000039    0.000012    0.000023    0.000018    0.000000   31.34   29.10    8.96   17.16   13.43    0.   80.38  176.2    0.    0.    0.00    0.000    0.00    0.0    0.00    0.00    0.00    0.00    0.    0.    0.00    0.    0.    0.    0.    0.    0.    0.   91.72    4.754  -34.38
 847.8 1177954850.    3.067   37.48   11.101    1.443   56.95   33.20  134.31   26.34   61.41   -2.49    1.107    1.6100    1.3020   22.14   32.20   26.04    0.   80.38   13.57   14.79    0.000175    0.000067    0.000039    0.000018    0.000031    0.000020    0.000000   38.29   22.29   10.29   17.71   11.43    0.   80.38  176.2    0.    0.    0.00    0.000    0.00    0.0    0.00    0.00    0.00    0.00    0.    0.    0.00    0.    0.    0.    0.    0.    0.    0.   91.96    4.420  -33.99
 848.0 1177954902.    2.873   37.44   10.546    1.522   57.37   33.20  132.98   26.31   61.66   -2.50    1.109    1.6100    1.3021   22.17   32.20   26.04    0.   80.41   13.83   14.29    0.000170    0.000063    0.000044    0.000025    0.000019    0.000019    0.000000   37.06   25.88   14.71   11.18   11.18    0.   80.41  176.3    0.    0.    0.00    0.000    0.00    0.0    0.00    0.00    0.00    0.00    0.    0.    0.00    0.    0.    0.    0.    0.    0.    0.   92.05    4.337  -33.96
 848.2 1177954953.    2.676   38.50   10.237    1.603   56.68   33.16  132.09   26.31   61.72   -2.48    1.108    1.6096    1.3020   22.17   32.19   26.04    0.   80.40   14.11   13.35    0.000197    0.000093    0.000041    0.000025    0.000018    0.000020    0.000000   47.21   20.81   12.69    9.14   10.15    0.   80.40  176.3    0.    0.    0.00    0.000    0.00    0.0    0.00    0.00    0.00    0.00    0.    0.    0.00    0.    0.    0.    0.    0.    0.    0.   92.23    4.254  -33.84
 848.4 1177954987.    2.466   38.76    9.551    1.613   56.85   33.37  134.04   26.28   61.54   -2.49    1.115    1.6096    1.3021   22.29   32.19   26.04    0.   80.52   21.80   17.09    0.000254    0.000161    0.000033    0.000021    0.000018    0.000021    0.000000   63.39   12.99    8.27    7.09    8.27    0.   80.52  176.4    0.    0.    0.00    0.000    0.00    0.0    0.00    0.00    0.00    0.00    0.    0.    0.00    0.    0.    0.    0.    0.    0.    0.   92.37    2.752  -34.02
 848.6 1177955022.    2.278   37.57   10.446    1.574   56.49   33.20  133.84   26.29   61.77   -2.49    1.119    1.6096    1.3021   22.39   32.19   26.04    0.   80.62   20.55   19.95    0.000250    0.000158    0.000034    0.000020    0.000018    0.000020    0.000000   63.20   13.60    8.00    7.20    8.00    0.   80.62  176.6    0.    0.    0.00    0.000    0.00    0.0    0.00    0.00    0.00    0.00    0.    0.    0.00    0.    0.    0.    0.    0.    0.    0.   92.50    2.919  -34.11
