# ------- LAS файл, созданный программой "GeoData" ------- #

~Version  information
# ---------------- ИНФОРМАЦИЯ О LAS-ФАЙЛЕ ---------------- #
VERS.                               1.20: CWLS log ASCII Standart - VERSION 1.20
WRAP.                                 NO: One line per depth step

~Well
# ----------------- ЗНАЧЕНИЯ ПАРАМЕТРОВ ------------------ #
NULL.                          -32768.00: Нулевое значение
WELL.                               WELL: 305
FLD .                              FIELD: Луза
STRT.M                              0,20: First depth
STOP.M                           1060,60: Last depth
STEP.M                              0.20: Depth increment
DATE.                           LOG_DATE: 
SRVC.                    SERVICE_COMPANY: 
COMP.                            COMPANY: 
CUST.                           CUSTOMER: 
CNTY.                            COUNTRY: 
METD.                             METHOD: 
DPST.                            DEPOSIT: 
STTP.                        тип_станции: 
GTIP.                         партия_ГТИ: 
CHTP.                   тип_хроматографа: 
GRMT.                   начальник_отряда: 
BOSS.                   начальник_партии: 
DRLM.                        вид_бурения: 
PERS.                          операторы: 
OTR .                       номер_отряда: 
PRJD.M                   проектный_забой: 0,0
ALTR.M                  альтитуда_ротора: 0,0
WDIM.MM                 диаметр_скважины: 0,0
KDIM.MM               диаметр_кондуктора: 0,0
BKND.                  башмак_кондуктора: 0,0
KUST.                               Куст: 

~Curve
# ------------------- НАЗВАНИЯ КРИВЫХ -------------------- #
DEPT.м                                  : Глубина
TIME.                                   : Время
тальблок.м                              : Положение тальблока
вес_на_крюке.т                          : Вес на крюке
нагрузка.т.                             : Нагрузка на долото
момент_ротора.кН*м                      : Крутящий момент ротора
давление_на_входе.атм.                  : Давление ПЖ на входе
расход_на_входе.л/с                     : Расход ПЖ на входе
обороты_ротора.об/мин                   : Обороты ротора
температура_на_выходе.°С                : Температура на выходе
ходы_насоса1.ход/мин                    : Ходы насоса-1
ходы_насоса2.ход/мин                    : Ходы насоса-2
уровень_в_емкости.м                     : Уровень-1
уровень_в_емкости2.м                    : Уровень-2
уровень_в_емкости3.м                    : Уровень-3
объем_в_емкости1.м3                     : Объём-1
объем_в_емкости2.м3                     : Объём-2
объем_в_емкости3.м3                     : Объём-3
глубина_над_забоем.м                    : Глубина над забоем
объем_актив_емкости.м3                  : Объем ПЖ в активн.ёмкостях
скорость_механическая.м/ч               : Скорость механическая
скорость_бурения.м/ч                    : Скорость бурения
сумм_газ.%                              : Сумма газов хром.
метан_абс.%                             : Метан абс.
этан_абс.%                              : Этан абс.
пропан_абс.%                            : Пропан абс.
бутан_абс.%                             : Бутан абс.
пентан_абс.%                            : Пентан абс.
гексан_абс.%                            : Гексан абс.
метан_отн.%                             : Метан отн.
этан_отн.%                              : Этан отн.
пропан_отн.%                            : Пропан отн.
бутан_отн.%                             : Бутан отн.
пентан_отн.%                            : Пентан отн.
гексан_отн.%                            : Гексан отн.
объем_емкости.м3                        : Объем ПЖ в емкостях
объем_раствора.м3                       : Общий V раствора
PLOT.г/см3                              : Плот.пор.
POR .                                   : Пористость
CLCT.%                                  : Кальцит
DLMT.%                                  : Доломит
NO  .%                                  : Н.О.
LITO.                                   : Литология
SHL2.                                   : Шлам-2
SHL3.                                   : Шлам-3
SHL4.                                   : Шлам-4
SHL5.                                   : Шлам-5
SHL6.                                   : Шлам-6
nfst.                                   : Нефтенасыщенность
shl1.                                   : shl1
F1  .%                                  : Ф1
F2  .%                                  : Ф2
F3  .%                                  : Ф3
F4  .%                                  : Ф4
F5  .%                                  : Ф5
F6  .%                                  : Ф6
F7  .%                                  : Ф7
расход_на_выходе.%                      : Расход ПЖ на выходе
дмк .мин/м                              : ДМК
параметр1.атм                           : Параметр - 1

~Other Information
# --------------------- ТЕКСТОВЫЕ ДАННЫЕ --------------------- #
"лба" 22,40 22,40 0 0 "<1 БГ ЛБ" 0 0 11 16777215
"лба" 39,60 39,60 0 0 "<1 БГ ЛБ" 0 0 11 16777215
"лба" 58,40 58,40 0 0 "<1 БГ ЛБ" 0 0 11 16777215
"лба" 78,80 78,80 0 0 "<1 БГ ЛБ" 0 0 11 16777215
"лба" 99,20 99,20 0 0 "<1 БГ ЛБ" 0 0 11 16777215
"лба" 114,80 114,80 0 0 "<1 БГ ЛБ" 0 0 11 16777215
"лба" 131,00 131,00 0 0 "<1 БГ ЛБ" 0 0 11 16777215
"лба" 146,40 146,40 0 0 "<1 БГ ЛБ" 0 0 11 16777215
"лба" 163,20 163,20 0 0 "<1 БГ ЛБ" 0 0 11 16777215
"лба" 181,20 181,20 0 0 "<1 БГ ЛБ" 0 0 11 16777215
"лба" 197,20 197,20 0 0 "<1 БГ ЛБ" 0 0 11 16777215
"лба" 211,00 211,00 0 0 "<1 БГ ЛБ" 0 0 11 16777215
"лба" 221,80 221,80 0 0 "<1 БГ ЛБ" 0 0 11 16777215
"лба" 234,00 234,00 0 0 "<1 БГ ЛБ" 0 0 11 16777215
"лба" 246,80 246,80 0 0 "<1 БГ ЛБ" 0 0 11 16777215
"лба" 259,60 259,60 0 0 "<1 БГ ЛБ" 0 0 11 16777215
"лба" 268,60 268,60 0 0 "<1 БГ ЛБ" 0 0 11 16777215
"лба" 278,00 278,00 0 0 "<1 БГ ЛБ" 0 0 11 16777215
"лба" 284,00 284,00 0 0 "<1 БГ ЛБ" 0 0 11 16777215
"лба" 290,20 290,20 0 0 "<1 БГ ЛБ" 0 0 11 16777215
"лба" 299,40 299,40 0 0 "<1 БГ ЛБ" 0 0 11 16777215
"лба" 309,60 309,60 0 0 "<1 БГ ЛБ" 0 0 11 16777215
"лба" 319,80 319,80 0 0 "<1 БГ ЛБ" 0 0 11 16777215
"лба" 331,60 331,60 0 0 "<1 БГ ЛБ" 0 0 11 16777215
"лба" 341,00 341,00 0 0 "<1 БГ ЛБ" 0 0 11 16777215
"лба" 351,40 351,40 0 0 "<1 БГ ЛБ" 0 0 11 16777215
"лба" 359,40 359,40 0 0 "<1 БГ ЛБ" 0 0 11 16777215
"лба" 370,60 370,60 0 0 "<1 БГ ЛБ" 0 0 11 16777215
"лба" 380,80 380,80 0 0 "<1 БГ ЛБ" 0 0 11 16777215
"лба" 397,80 397,80 0 0 "<1 БГ ЛБ" 0 0 11 16777215
"лба" 415,80 415,80 0 0 "<1 БГ ЛБ" 0 0 11 16777215
"лба" 438,20 438,20 0 0 "<1 БГ ЛБ" 0 0 11 16777215
"лба" 461,00 461,00 0 0 "<1 БГ ЛБ" 0 0 11 16777215
"лба" 485,60 485,60 0 0 "<1 БГ ЛБ" 0 0 11 16777215
"лба" 501,40 501,40 0 0 "<1 БГ ЛБ" 0 0 11 16777215
"лба" 516,80 516,80 0 0 "<1 БГ ЛБ" 0 0 11 16777215
"лба" 531,40 531,40 0 0 "<1 БГ ЛБ" 0 0 11 16777215
"лба" 543,40 543,40 0 0 "<1 БГ ЛБ" 0 0 11 16777215
"лба" 552,40 552,40 0 0 "<1 БГ ЛБ" 0 0 11 16777215
"лба" 559,20 559,20 0 0 "<1 БГ ЛБ" 0 0 11 16777215
"лба" 566,60 566,60 0 0 "<1 БГ ЛБ" 0 0 11 16777215
"лба" 568,90 580,00 0 0 "нет нет нет" 0 0 11 16777215
"лба" 580,00 590,00 0 0 "нет нет нет" 0 0 11 16777215
"лба" 590,00 600,00 0 0 "нет нет нет" 0 0 11 16777215
"лба" 600,00 640,00 0 0 "нет нет нет" 0 0 11 16777215
"лба" 640,00 660,00 0 0 "нет нет нет" 0 0 11 16777215
"лба" 660,00 680,00 0 0 "нет нет нет" 0 0 11 16777215
"лба" 680,20 700,00 0 0 "нет нет нет" 0 0 11 16777215
"сумм_газ" 516,80 516,80 1176749486 0 "Проверка хроматографа" 0 0 10 16777215

# ------------------ ЗНАЧЕНИЯ КРИВЫХ ------------------ #
~ASCII Log Data
# ...
 138.8 1176365892.    2.440   18.89    1.895    1.568   26.78   32.59   62.52   21.50   58.53    0.26    1.013    0.5133    0.5659   20.26   10.27   11.32    0.   41.85   20.07   22.44    0.000363    0.000255    0.000028    0.000034    0.000027    0.000019    0.000000   70.25    7.71    9.37    7.44    5.23    0.   41.85   40.3    0.    0.    5.00    0.000   95.00   12.0    5.20    7.20   13.20    0.00    0.    0.   12.40    0.    0.    0.    0.    0.    0.    0. -32768. -32768. -32768.
 139.0 1176365918.    2.237   18.60    2.185    1.617   26.65   32.76   60.66   21.54   60.15    0.28    1.020    0.5137    0.5660   20.39   10.28   11.32    0.   41.98   29.23   23.08    0.000357    0.000252    0.000030    0.000029    0.000024    0.000022    0.000000   70.59    8.40    8.12    6.72    6.16    0.   41.98   40.5    0.    0.    5.00    0.000   95.00   12.0    5.20    7.20   13.20    0.00    0.    0.   12.40    0.    0.    0.    0.    0.    0.    0. -32768. -32768. -32768.
 139.2 1176365949.    2.026   18.61    2.177    1.584   26.75   32.67   60.49   21.66   60.02    0.25    1.023    0.5124    0.5659   20.46   10.25   11.32    0.   42.03   24.36   25.23    0.000344    0.000242    0.000038    0.000014    0.000017    0.000033    0.000000   70.35   11.05    4.07    4.94    9.59    0.   42.03   40.5    0.    0.    5.00    0.000   95.00   12.0    5.20    7.20   13.20    0.00    0.    0.   12.40    0.    0.    0.    0.    0.    0.    0. -32768. -32768. -32768.
 139.4 1176365976.    1.822   18.68    2.105    1.605   26.76   32.47   62.08   21.82   61.46    0.19    1.016    0.5128    0.5661   20.34   10.26   11.32    0.   41.92   27.02   27.12    0.000344    0.000242    0.000038    0.000014    0.000017    0.000033    0.000000   70.35   11.05    4.07    4.94    9.59    0.   41.92   40.4    0.    0.    5.00    0.000   95.00   12.0    5.20    7.20   13.20    0.00    0.    0.   12.40    0.    0.    0.    0.    0.    0.    0. -32768. -32768. -32768.
 139.6 1176366006.    1.635   18.72    2.067    1.642   26.72   32.81   61.59   22.00   58.18    0.32    1.001    0.5133    0.5660   20.03   10.26   11.32    0.   41.61   25.20   25.05    0.000399    0.000282    0.000045    0.000015    0.000028    0.000029    0.000000   70.68   11.28    3.76    7.02    7.27    0.   41.61   40.1    0.    0.    5.00    0.000   95.00   12.0    5.20    7.20   13.20    0.00    0.    0.   12.40    0.    0.    0.    0.    0.    0.    0. -32768. -32768. -32768.
 139.8 1176366583.    4.916   19.28    1.506    1.770   26.73   32.77   60.48   22.16   60.57    0.31    0.996    0.5144    0.5662   19.93   10.29   11.32    0.   41.54   15.18   18.87    0.000745    0.000655    0.000035    0.000016    0.000020    0.000019    0.000000   87.92    4.70    2.15    2.68    2.55    0.   41.54   40.0    0.    0.    5.00    0.000   95.00   12.0    5.20    7.20   13.20    0.00    0.    0.   12.40    0.    0.    0.    0.    0.    0.    0. -32768. -32768. -32768.
 140.0 1176366596.   13.756   20.74    0.000    2.030   26.09   32.53   62.28   22.08   59.70    0.22    0.987    0.5202    0.5668   19.74   10.40   11.34    0.   41.48   56.21   11.01    0.000929    0.000787    0.000032    0.000048    0.000048    0.000014    0.000000   84.71    3.44    5.17    5.17    1.51    0.   41.48   40.0    0.    0.    5.00    0.000   95.00   12.0    5.20    7.20   13.20    0.00    0.    0.   12.40    0.    0.    0.    0.    0.    0.    0. -32768. -32768. -32768.
 140.2 1176366610.   13.561   20.55    0.000    2.091   25.91   33.08   62.51   22.05   58.75    0.23    0.987    0.5213    0.5669   19.74   10.42   11.34    0.   41.50   63.23   22.72    0.000929    0.000787    0.000032    0.000048    0.000048    0.000014    0.000000   84.71    3.44    5.17    5.17    1.51    0.   41.50   40.0    0.    0.    5.00    0.000   95.00   12.0    5.20    7.20   13.20    0.00    0.    0.   12.40    0.    0.    0.    0.    0.    0.    0. -32768. -32768. -32768.
 140.4 1176366854.   13.338   17.55    3.172    2.692   26.12   32.86   61.61   22.10   60.24    0.25    0.987    0.5185    0.5669   19.74   10.37   11.34    0.   41.44    5.97    8.63    0.000857    0.000761    0.000026    0.000027    0.000026    0.000017    0.000000   88.80    3.03    3.15    3.03    1.98    0.   41.44   39.9    0.    0.    5.00    0.000   95.00   12.0    5.20    7.20   13.20    0.00    0.    0.   12.40    0.    0.    0.    0.    0.    0.    0. -32768. -32768. -32768.
 140.6 1176367170.   13.147   18.06    2.680    2.647   26.27   32.63   61.25   22.18   58.99    0.21    0.987    0.5184    0.5667   19.74   10.37   11.34    0.   41.44    2.31    3.03    0.000807    0.000714    0.000029    0.000013    0.000027    0.000024    0.000000   88.48    3.59    1.61    3.35    2.97    0.   41.44   39.9    0.    0.    5.00    0.000   95.00   12.0    5.20    7.20   13.20    0.00    0.    0.   12.40    0.    0.    0.    0.    0.    0.    0. -32768. -32768. -32768.
 140.8 1176367635.   12.944   17.70    3.059    2.779   26.56   32.52   61.60   22.21   59.25    0.12    0.983    0.5191    0.5668   19.66   10.38   11.34    0.   41.37    1.57    1.91    0.000726    0.000631    0.000030    0.000016    0.000021    0.000028    0.000000   86.91    4.13    2.20    2.89    3.86    0.   41.37   39.9    0.    0.    5.00    0.000   95.00   12.0    5.20    7.20   13.20    0.00    0.    0.   12.40    0.    0.    0.    0.    0.    0.    0. -32768. -32768. -32768.
 141.0 1176368357.   12.745   17.94    2.850    2.757   25.68   32.55   61.54   22.33   59.03    0.06    0.968    0.5211    0.5666   19.36   10.42   11.33    0.   41.11    0.97    1.41    0.000397    0.000308    0.000030    0.000012    0.000022    0.000025    0.000000   77.58    7.56    3.02    5.54    6.30    0.   41.11   39.6    0.    0.    5.00    0.000   95.00   12.0    5.20    7.20   13.20    0.00    0.    0.   12.40    0.    0.    0.    0.    0.    0.    0. -32768. -32768. -32768.
 141.2 1176369563.   12.546   17.99    2.974    3.043   24.72   32.53   61.71   21.48   59.63    0.00    0.942    0.5195    0.5666   18.84   10.39   11.33    0.   40.56    0.62    0.83    0.000375    0.000274    0.000035    0.000015    0.000024    0.000027    0.000000   73.07    9.33    4.00    6.40    7.20    0.   40.56   39.0    0.    0.    5.00    0.000   95.00    7.0   15.20    0.00    0.00    0.00    0.    0.    7.80    0.    0.    0.    0.    0.    0.    0. -32768. -32768. -32768.
 141.4 1176553216.    7.665   19.12    2.625    0.112   13.77   20.16   58.48    7.64   -0.09   42.27    1.422    1.1714    0.9995   28.42   23.43   19.99    0.   71.84   42.98    6.49    0.000482    0.000365    0.000047    0.000021    0.000030    0.000019    0.000000   75.73    9.75    4.36    6.22    3.94    0.   71.84   81.6    0.    0.    5.00    0.000   95.00    7.0   15.20    0.00    0.00    0.00    0.    0.    7.80    0.    0.    0.    0.    0.    0.    0.    0.00    1.396 -32768.
 141.6 1176553217.    7.465   20.00    1.790    0.108   13.70   20.15   58.68    2.84    0.00   42.61    1.423    1.1612    0.9999   28.47   23.25   20.00    0.   71.72   70.26   18.48    0.000112    0.000007    0.000055    0.000007    0.000018    0.000025    0.000000    6.25   49.11    6.25   16.07   22.32    0.   71.72   81.5    0.    0.    5.00    0.000   95.00    7.0   15.20    0.00    0.00    0.00    0.    0.    7.80    0.    0.    0.    0.    0.    0.    0.    0.00    0.854 -32768.
 141.8 1176553218.    7.262   20.55    1.077    0.018   13.74   20.23   58.74    2.82   -0.02   42.96    1.428    1.1601    0.9999   28.55   23.20   20.00    0.   71.75   87.82   30.62    0.000112    0.000007    0.000055    0.000007    0.000018    0.000025    0.000000    6.25   49.11    6.25   16.07   22.32    0.   71.75   81.6    0.    0.    5.00    0.000   95.00    7.0   15.20    0.00    0.00    0.00    0.    0.    7.80    0.    0.    0.    0.    0.    0.    0.    0.00    0.683 -32768.
 142.0 1176553219.    6.856   21.53    0.271   -0.026   18.65   20.41   59.35    2.82   -0.05   43.30    1.416    1.1671    1.0010   28.35   23.34   20.02    0.   71.71   13.80   24.79    0.000112    0.000007    0.000055    0.000007    0.000018    0.000025    0.000000    6.25   49.11    6.25   16.07   22.32    0.   71.71   81.6    0.    0.    5.00    0.000   95.00   15.0   15.20    0.00    0.00    0.00    0.    0.    7.80    0.    0.    0.    0.    0.    0.    0.    0.00    4.349 -32768.
