# ------- LAS файл, созданный программой "GeoData" ------- #

~Version  information
# ---------------- ИНФОРМАЦИЯ О LAS-ФАЙЛЕ ---------------- #
VERS.                               1.20: CWLS log ASCII Standart - VERSION 1.20
WRAP.                                 NO: One line per depth step

~Well
# ----------------- ЗНАЧЕНИЯ ПАРАМЕТРОВ ------------------ #
NULL.                          -32768.00: Нулевое значение
WELL.                               WELL: 305
FLD .                              FIELD: Луза
STRT.M                              0,20: First depth
STOP.M                           1060,60: Last depth
STEP.M                              0.20: Depth increment
DATE.                           LOG_DATE: 
SRVC.                    SERVICE_COMPANY: 
COMP.                            COMPANY: 
CUST.                           CUSTOMER: 
CNTY.                            COUNTRY: 
METD.                             METHOD: 
DPST.                            DEPOSIT: 
STTP.                        тип_станции: 
GTIP.                         партия_ГТИ: 
CHTP.                   тип_хроматографа: 
GRMT.                   начальник_отряда: 
BOSS.                   начальник_партии: 
DRLM.                        вид_бурения: 
PERS.                          операторы: 
OTR .                       номер_отряда: 
PRJD.M                   проектный_забой: 0,0
ALTR.M                  альтитуда_ротора: 0,0
WDIM.MM                 диаметр_скважины: 0,0
KDIM.MM               диаметр_кондуктора: 0,0
BKND.                  башмак_кондуктора: 0,0
KUST.                               Куст: 

~Curve
# ------------------- НАЗВАНИЯ КРИВЫХ -------------------- #
DEPT.м                                  : Глубина
TIME.                                   : Время
тальблок.м                              : Положение тальблока
вес_на_крюке.т                          : Вес на крюке
нагрузка.т.                             : Нагрузка на долото
момент_ротора.кН*м                      : Крутящий момент ротора
давление_на_входе.атм.                  : Давление ПЖ на входе
расход_на_входе.л/с                     : Расход ПЖ на входе
обороты_ротора.об/мин                   : Обороты ротора
температура_на_выходе.°С                : Температура на выходе
ходы_насоса1.ход/мин                    : Ходы насоса-1
ходы_насоса2.ход/мин                    : Ходы насоса-2
уровень_в_емкости.м                     : Уровень-1
уровень_в_емкости2.м                    : Уровень-2
уровень_в_емкости3.м                    : Уровень-3
объем_в_емкости1.м3                     : Объём-1
объем_в_емкости2.м3                     : Объём-2
объем_в_емкости3.м3                     : Объём-3
глубина_над_забоем.м                    : Глубина над забоем
объем_актив_емкости.м3                  : Объем ПЖ в активн.ёмкостях
скорость_механическая.м/ч               : Скорость механическая
скорость_бурения.м/ч                    : Скорость бурения
сумм_газ.%                              : Сумма газов хром.
метан_абс.%                             : Метан абс.
этан_абс.%                              : Этан абс.
пропан_абс.%                            : Пропан абс.
бутан_абс.%                             : Бутан абс.
пентан_абс.%                            : Пентан абс.
гексан_абс.%                            : Гексан абс.
метан_отн.%                             : Метан отн.
этан_отн.%                              : Этан отн.
пропан_отн.%                            : Пропан отн.
бутан_отн.%                             : Бутан отн.
пентан_отн.%                            : Пентан отн.
гексан_отн.%                            : Гексан отн.
объем_емкости.м3                        : Объем ПЖ в емкостях
объем_раствора.м3                       : Общий V раствора
PLOT.г/см3                              : Плот.пор.
POR .                                   : Пористость
CLCT.%                                  : Кальцит
DLMT.%                                  : Доломит
NO  .%                                  : Н.О.
LITO.                                   : Литология
SHL2.                                   : Шлам-2
SHL3.                                   : Шлам-3
SHL4.                                   : Шлам-4
SHL5.                                   : Шлам-5
SHL6.                                   : Шлам-6
nfst.                                   : Нефтенасыщенность
shl1.                                   : shl1
F1  .%                                  : Ф1
F2  .%                                  : Ф2
F3  .%                                  : Ф3
F4  .%                                  : Ф4
F5  .%                                  : Ф5
F6  .%                                  : Ф6
F7  .%                                  : Ф7
расход_на_выходе.%                      : Расход ПЖ на выходе
дмк .мин/м                              : ДМК
параметр1.атм                           : Параметр - 1

~Other Information
# --------------------- ТЕКСТОВЫЕ ДАННЫЕ --------------------- #
"лба" 22,40 22,40 0 0 "<1 БГ ЛБ" 0 0 11 16777215
"лба" 39,60 39,60 0 0 "<1 БГ ЛБ" 0 0 11 16777215
"лба" 58,40 58,40 0 0 "<1 БГ ЛБ" 0 0 11 16777215
"лба" 78,80 78,80 0 0 "<1 БГ ЛБ" 0 0 11 16777215
"лба" 99,20 99,20 0 0 "<1 БГ ЛБ" 0 0 11 16777215
"лба" 114,80 114,80 0 0 "<1 БГ ЛБ" 0 0 11 16777215
"лба" 131,00 131,00 0 0 "<1 БГ ЛБ" 0 0 11 16777215
"лба" 146,40 146,40 0 0 "<1 БГ ЛБ" 0 0 11 16777215
"лба" 163,20 163,20 0 0 "<1 БГ ЛБ" 0 0 11 16777215
"лба" 181,20 181,20 0 0 "<1 БГ ЛБ" 0 0 11 16777215
"лба" 197,20 197,20 0 0 "<1 БГ ЛБ" 0 0 11 16777215
"лба" 211,00 211,00 0 0 "<1 БГ ЛБ" 0 0 11 16777215
"лба" 221,80 221,80 0 0 "<1 БГ ЛБ" 0 0 11 16777215
"лба" 234,00 234,00 0 0 "<1 БГ ЛБ" 0 0 11 16777215
"лба" 246,80 246,80 0 0 "<1 БГ ЛБ" 0 0 11 16777215
"лба" 259,60 259,60 0 0 "<1 БГ ЛБ" 0 0 11 16777215
"лба" 268,60 268,60 0 0 "<1 БГ ЛБ" 0 0 11 16777215
"лба" 278,00 278,00 0 0 "<1 БГ ЛБ" 0 0 11 16777215
"лба" 284,00 284,00 0 0 "<1 БГ ЛБ" 0 0 11 16777215
"лба" 290,20 290,20 0 0 "<1 БГ ЛБ" 0 0 11 16777215
"лба" 299,40 299,40 0 0 "<1 БГ ЛБ" 0 0 11 16777215
"лба" 309,60 309,60 0 0 "<1 БГ ЛБ" 0 0 11 16777215
"лба" 319,80 319,80 0 0 "<1 БГ ЛБ" 0 0 11 16777215
"лба" 331,60 331,60 0 0 "<1 БГ ЛБ" 0 0 11 16777215
"лба" 341,00 341,00 0 0 "<1 БГ ЛБ" 0 0 11 16777215
"лба" 351,40 351,40 0 0 "<1 БГ ЛБ" 0 0 11 16777215
"лба" 359,40 359,40 0 0 "<1 БГ ЛБ" 0 0 11 16777215
"лба" 370,60 370,60 0 0 "<1 БГ ЛБ" 0 0 11 16777215
"лба" 380,80 380,80 0 0 "<1 БГ ЛБ" 0 0 11 16777215
"лба" 397,80 397,80 0 0 "<1 БГ ЛБ" 0 0 11 16777215
"лба" 415,80 415,80 0 0 "<1 БГ ЛБ" 0 0 11 16777215
"лба" 438,20 438,20 0 0 "<1 БГ ЛБ" 0 0 11 16777215
"лба" 461,00 461,00 0 0 "<1 БГ ЛБ" 0 0 11 16777215
"лба" 485,60 485,60 0 0 "<1 БГ ЛБ" 0 0 11 16777215
"лба" 501,40 501,40 0 0 "<1 БГ ЛБ" 0 0 11 16777215
"лба" 516,80 516,80 0 0 "<1 БГ ЛБ" 0 0 11 16777215
"лба" 531,40 531,40 0 0 "<1 БГ ЛБ" 0 0 11 16777215
"лба" 543,40 543,40 0 0 "<1 БГ ЛБ" 0 0 11 16777215
"лба" 552,40 552,40 0 0 "<1 БГ ЛБ" 0 0 11 16777215
"лба" 559,20 559,20 0 0 "<1 БГ ЛБ" 0 0 11 16777215
"лба" 566,60 566,60 0 0 "<1 БГ ЛБ" 0 0 11 16777215
"лба" 568,90 580,00 0 0 "нет нет нет" 0 0 11 16777215
"лба" 580,00 590,00 0 0 "нет нет нет" 0 0 11 16777215
"лба" 590,00 600,00 0 0 "нет нет нет" 0 0 11 16777215
"лба" 600,00 640,00 0 0 "нет нет нет" 0 0 11 16777215
"лба" 640,00 660,00 0 0 "нет нет нет" 0 0 11 16777215
"лба" 660,00 680,00 0 0 "нет нет нет" 0 0 11 16777215
"лба" 680,20 700,00 0 0 "нет нет нет" 0 0 11 16777215
"сумм_газ" 516,80 516,80 1176749486 0 "Проверка хроматографа" 0 0 10 16777215

# ------------------ ЗНАЧЕНИЯ КРИВЫХ ------------------ #
~ASCII Log Data
# ...
 985.0 1178107908.   12.239   40.53    5.021    3.165   60.66   37.06  154.41   22.84   61.99   -2.51    1.046    1.0814    0.9776   20.92   21.63   19.55    0.   62.10   15.21   10.98    0.000097    0.000001    0.000038    0.000012    0.000018    0.000028    0.000000    1.03   39.18   12.37   18.56   28.87    0.   62.10  174.6    0.    0.    0.00    0.000    0.00    0.0    0.00    0.00    0.00    0.00    0.    0.    0.00    0.    0.    0.    0.    0.    0.    0.   98.89    3.946  -32.50
 985.2 1178107958.   12.045   39.98    5.522    2.405   60.84   36.80  154.30   22.46   61.94   -2.50    1.044    1.0816    0.9776   20.87   21.63   19.55    0.   62.05   14.66   15.08    0.000117    0.000001    0.000044    0.000008    0.000018    0.000046    0.000000    0.85   37.61    6.84   15.38   39.32    0.   62.05  174.6    0.    0.    0.00    0.000    0.00    0.0    0.00    0.00    0.00    0.00    0.    0.    0.00    0.    0.    0.    0.    0.    0.    0.   98.80    4.092  -32.70
 985.4 1178108011.   11.840   40.36    5.116    2.343   61.27   36.85  154.04   22.06   61.78   -2.51    1.042    1.0816    0.9776   20.85   21.63   19.55    0.   62.04   14.04   14.65    0.000098    0.000001    0.000036    0.000012    0.000017    0.000032    0.000000    1.02   36.73   12.24   17.35   32.65    0.   62.04  174.6    0.    0.    0.00    0.000    0.00    0.0    0.00    0.00    0.00    0.00    0.    0.    0.00    0.    0.    0.    0.    0.    0.    0.   98.83    4.275  -32.84
 985.6 1178108065.   11.638   39.54    5.748    2.156   61.43   36.68  154.28   21.91   61.86   -2.50    1.040    1.0809    0.9774   20.80   21.62   19.55    0.   61.97   14.04   14.28    0.000096    0.000001    0.000034    0.000014    0.000017    0.000030    0.000000    1.04   35.42   14.58   17.71   31.25    0.   61.97  174.6    0.    0.    0.00    0.000    0.00    0.0    0.00    0.00    0.00    0.00    0.    0.    0.00    0.    0.    0.    0.    0.    0.    0.   97.76    4.275  -32.81
 985.8 1178108112.   11.438   41.23    4.002    2.101   61.24   36.67  154.19   21.97   61.70   -2.51    1.046    1.0806    0.9775   20.92   21.61   19.55    0.   62.08   15.64   14.14    0.000103    0.000001    0.000036    0.000014    0.000016    0.000036    0.000000    0.97   34.95   13.59   15.53   34.95    0.   62.08  174.7    0.    0.    0.00    0.000    0.00    0.0    0.00    0.00    0.00    0.00    0.    0.    0.00    0.    0.    0.    0.    0.    0.    0.   97.50    3.836  -32.88
 986.0 1178108160.   11.240   39.58    5.739    2.225   60.80   36.65  154.25   22.12   61.70   -2.51    1.046    1.0802    0.9775   20.92   21.61   19.55    0.   62.07   15.87   16.77    0.000117    0.000001    0.000036    0.000024    0.000022    0.000034    0.000000    0.85   30.77   20.51   18.80   29.06    0.   62.07  174.7    0.    0.    0.00    0.000    0.00    0.0    0.00    0.00    0.00    0.00    0.    0.    0.00    0.    0.    0.    0.    0.    0.    0.   97.50    3.781  -33.05
 986.2 1178108211.   11.037   40.09    5.111    2.170   61.03   36.51  154.26   21.99   61.55   -2.51    1.046    1.0808    0.9775   20.92   21.61   19.55    0.   62.08   14.08   15.19    0.000125    0.000001    0.000036    0.000031    0.000025    0.000032    0.000000    0.80   28.80   24.80   20.00   25.60    0.   62.08  174.8    0.    0.    0.00    0.000    0.00    0.0    0.00    0.00    0.00    0.00    0.    0.    0.00    0.    0.    0.    0.    0.    0.    0.   97.52    4.262  -32.80
 986.4 1178108793.   10.840   39.85    5.618    2.153   61.17   36.53  154.19   22.32   61.57   -2.51    1.046    1.0813    0.9775   20.92   21.63   19.55    0.   62.10   14.90   14.43    0.000238    0.000124    0.000035    0.000021    0.000020    0.000038    0.000000   52.10   14.71    8.82    8.40   15.97    0.   62.10  174.8    0.    0.    0.00    0.000    0.00    0.0    0.00    0.00    0.00    0.00    0.    0.    0.00    0.    0.    0.    0.    0.    0.    0.   97.33    4.028  -33.40
 986.6 1178108843.   10.638   40.47    5.097    2.213   61.47   36.34  154.12   21.82   61.89   -2.51    1.051    1.0813    0.9775   21.02   21.63   19.55    0.   62.19   15.75   14.82    0.000171    0.000022    0.000035    0.000036    0.000019    0.000059    0.000000   12.87   20.47   21.05   11.11   34.50    0.   62.19  174.9    0.    0.    0.00    0.000    0.00    0.0    0.00    0.00    0.00    0.00    0.    0.    0.00    0.    0.    0.    0.    0.    0.    0.   97.26    3.810  -32.51
 986.8 1178108873.   10.440   40.60    4.878    2.156   61.00   36.51  154.21   21.05   61.48   -2.51    1.058    1.0814    0.9775   21.15   21.63   19.55    0.   62.33   23.37   17.91    0.000167    0.000037    0.000045    0.000026    0.000016    0.000043    0.000000   22.16   26.95   15.57    9.58   25.75    0.   62.33  175.1    0.    0.    0.00    0.000    0.00    0.0    0.00    0.00    0.00    0.00    0.    0.    0.00    0.    0.    0.    0.    0.    0.    0.   97.16    2.567  -32.80
 987.0 1178108920.   10.241   39.43    5.815    2.279   60.64   36.58  154.35   20.22   61.64   -2.51    1.058    1.0815    0.9775   21.16   21.63   19.55    0.   62.34   16.22   19.62    0.000166    0.000043    0.000050    0.000022    0.000015    0.000036    0.000000   25.90   30.12   13.25    9.04   21.69    0.   62.34  175.1    0.    0.    0.00    0.000    0.00    0.0    0.00    0.00    0.00    0.00    0.    0.    0.00    0.    0.    0.    0.    0.    0.    0.   97.08    3.699  -32.85
 987.2 1178108970.   10.037   40.00    5.369    2.397   60.61   36.39  154.18   19.76   61.90   -2.51    1.058    1.0816    0.9776   21.16   21.63   19.55    0.   62.34   15.21   15.93    0.000172    0.000027    0.000065    0.000018    0.000035    0.000027    0.000000   15.70   37.79   10.47   20.35   15.70    0.   62.34  175.1    0.    0.    0.00    0.000    0.00    0.0    0.00    0.00    0.00    0.00    0.    0.    0.00    0.    0.    0.    0.    0.    0.    0.   96.90    3.946  -33.16
 987.4 1178109016.    9.837   39.69    5.503    2.205   60.20   36.31  154.14   19.58   61.68   -2.46    1.058    1.0812    0.9774   21.16   21.62   19.55    0.   62.33   16.22   15.46    0.000174    0.000023    0.000069    0.000018    0.000040    0.000024    0.000000   13.22   39.66   10.34   22.99   13.79    0.   62.33  175.2    0.    0.    0.00    0.000    0.00    0.0    0.00    0.00    0.00    0.00    0.    0.    0.00    0.    0.    0.    0.    0.    0.    0.   96.74    3.699  -32.62
 987.6 1178109058.    9.636   40.30    5.178    1.850   60.84   36.36  154.16   19.73   61.82   -2.47    1.058    1.0812    0.9775   21.16   21.62   19.55    0.   62.33   18.25   17.54    0.000170    0.000045    0.000049    0.000037    0.000015    0.000024    0.000000   26.47   28.82   21.76    8.82   14.12    0.   62.33  175.2    0.    0.    0.00    0.000    0.00    0.0    0.00    0.00    0.00    0.00    0.    0.    0.00    0.    0.    0.    0.    0.    0.    0.   96.67    3.288  -32.69
 987.8 1178109153.    9.436   39.81    6.055    2.281   60.64   36.56  154.26   22.26   61.78   -2.47    1.058    1.0811    0.9631   21.16   21.62   19.27    0.   62.05    7.45   11.23    0.000130    0.000019    0.000045    0.000025    0.000012    0.000029    0.000000   14.62   34.62   19.23    9.23   22.31    0.   62.05  174.9    0.    0.    0.00    0.000    0.00    0.0    0.00    0.00    0.00    0.00    0.    0.    0.00    0.    0.    0.    0.    0.    0.    0.   96.65    8.056  -32.64
 988.0 1178109275.    9.238   39.71    5.955    2.083   61.10   36.49  154.46   22.00   61.74   -2.50    1.060    1.0810    0.9130   21.20   21.62   18.27    0.   61.09    6.03    6.47    0.000111    0.000014    0.000032    0.000016    0.000018    0.000031    0.000000   12.61   28.83   14.41   16.22   27.93    0.   61.09  174.0    0.    0.    0.00    0.000    0.00    0.0    0.00    0.00    0.00    0.00    0.    0.    0.00    0.    0.    0.    0.    0.    0.    0.   96.50    9.946  -33.38
 988.2 1178109385.    9.040   38.76    6.133    1.700   60.61   36.57  154.22   21.05   61.70   -2.50    1.070    1.0810    0.8545   21.40   21.62   17.09    0.   60.12    6.70    6.42    0.000188    0.000091    0.000032    0.000017    0.000024    0.000024    0.000000   48.40   17.02    9.04   12.77   12.77    0.   60.12  173.0    0.    0.    0.00    0.000    0.00    0.0    0.00    0.00    0.00    0.00    0.    0.    0.00    0.    0.    0.    0.    0.    0.    0.   96.40    8.960  -33.13
