# ------- LAS файл, созданный программой "GeoData" ------- #

~Version  information
# ---------------- ИНФОРМАЦИЯ О LAS-ФАЙЛЕ ---------------- #
VERS.                               1.20: CWLS log ASCII Standart - VERSION 1.20
WRAP.                                 NO: One line per depth step

~Well
# ----------------- ЗНАЧЕНИЯ ПАРАМЕТРОВ ------------------ #
NULL.                          -32768.00: Нулевое значение
WELL.                               WELL: 305
FLD .                              FIELD: Луза
STRT.M                              0,20: First depth
STOP.M                           1060,60: Last depth
STEP.M                              0.20: Depth increment
DATE.                           LOG_DATE: 
SRVC.                    SERVICE_COMPANY: 
COMP.                            COMPANY: 
CUST.                           CUSTOMER: 
CNTY.                            COUNTRY: 
METD.                             METHOD: 
DPST.                            DEPOSIT: 
STTP.                        тип_станции: 
GTIP.                         партия_ГТИ: 
CHTP.                   тип_хроматографа: 
GRMT.                   начальник_отряда: 
BOSS.                   начальник_партии: 
DRLM.                        вид_бурения: 
PERS.                          операторы: 
OTR .                       номер_отряда: 
PRJD.M                   проектный_забой: 0,0
ALTR.M                  альтитуда_ротора: 0,0
WDIM.MM                 диаметр_скважины: 0,0
KDIM.MM               диаметр_кондуктора: 0,0
BKND.                  башмак_кондуктора: 0,0
KUST.                               Куст: 

~Curve
# ------------------- НАЗВАНИЯ КРИВЫХ -------------------- #
DEPT.м                                  : Глубина
TIME.                                   : Время
тальблок.м                              : Положение тальблока
вес_на_крюке.т                          : Вес на крюке
нагрузка.т.                             : Нагрузка на долото
момент_ротора.кН*м                      : Крутящий момент ротора
давление_на_входе.атм.                  : Давление ПЖ на входе
расход_на_входе.л/с                     : Расход ПЖ на входе
обороты_ротора.об/мин                   : Обороты ротора
температура_на_выходе.°С                : Температура на выходе
ходы_насоса1.ход/мин                    : Ходы насоса-1
ходы_насоса2.ход/мин                    : Ходы насоса-2
уровень_в_емкости.м                     : Уровень-1
уровень_в_емкости2.м                    : Уровень-2
уровень_в_емкости3.м                    : Уровень-3
объем_в_емкости1.м3                     : Объём-1
объем_в_емкости2.м3                     : Объём-2
объем_в_емкости3.м3                     : Объём-3
глубина_над_забоем.м                    : Глубина над забоем
объем_актив_емкости.м3                  : Объем ПЖ в активн.ёмкостях
скорость_механическая.м/ч               : Скорость механическая
скорость_бурения.м/ч                    : Скорость бурения
сумм_газ.%                              : Сумма газов хром.
метан_абс.%                             : Метан абс.
этан_абс.%                              : Этан абс.
пропан_абс.%                            : Пропан абс.
бутан_абс.%                             : Бутан абс.
пентан_абс.%                            : Пентан абс.
гексан_абс.%                            : Гексан абс.
метан_отн.%                             : Метан отн.
этан_отн.%                              : Этан отн.
пропан_отн.%                            : Пропан отн.
бутан_отн.%                             : Бутан отн.
пентан_отн.%                            : Пентан отн.
гексан_отн.%                            : Гексан отн.
объем_емкости.м3                        : Объем ПЖ в емкостях
объем_раствора.м3                       : Общий V раствора
PLOT.г/см3                              : Плот.пор.
POR .                                   : Пористость
CLCT.%                                  : Кальцит
DLMT.%                                  : Доломит
NO  .%                                  : Н.О.
LITO.                                   : Литология
SHL2.                                   : Шлам-2
SHL3.                                   : Шлам-3
SHL4.                                   : Шлам-4
SHL5.                                   : Шлам-5
SHL6.                                   : Шлам-6
nfst.                                   : Нефтенасыщенность
shl1.                                   : shl1
F1  .%                                  : Ф1
F2  .%                                  : Ф2
F3  .%                                  : Ф3
F4  .%                                  : Ф4
F5  .%                                  : Ф5
F6  .%                                  : Ф6
F7  .%                                  : Ф7
расход_на_выходе.%                      : Расход ПЖ на выходе
дмк .мин/м                              : ДМК
параметр1.атм                           : Параметр - 1

~Other Information
# --------------------- ТЕКСТОВЫЕ ДАННЫЕ --------------------- #
"лба" 22,40 22,40 0 0 "<1 БГ ЛБ" 0 0 11 16777215
"лба" 39,60 39,60 0 0 "<1 БГ ЛБ" 0 0 11 16777215
"лба" 58,40 58,40 0 0 "<1 БГ ЛБ" 0 0 11 16777215
"лба" 78,80 78,80 0 0 "<1 БГ ЛБ" 0 0 11 16777215
"лба" 99,20 99,20 0 0 "<1 БГ ЛБ" 0 0 11 16777215
"лба" 114,80 114,80 0 0 "<1 БГ ЛБ" 0 0 11 16777215
"лба" 131,00 131,00 0 0 "<1 БГ ЛБ" 0 0 11 16777215
"лба" 146,40 146,40 0 0 "<1 БГ ЛБ" 0 0 11 16777215
"лба" 163,20 163,20 0 0 "<1 БГ ЛБ" 0 0 11 16777215
"лба" 181,20 181,20 0 0 "<1 БГ ЛБ" 0 0 11 16777215
"лба" 197,20 197,20 0 0 "<1 БГ ЛБ" 0 0 11 16777215
"лба" 211,00 211,00 0 0 "<1 БГ ЛБ" 0 0 11 16777215
"лба" 221,80 221,80 0 0 "<1 БГ ЛБ" 0 0 11 16777215
"лба" 234,00 234,00 0 0 "<1 БГ ЛБ" 0 0 11 16777215
"лба" 246,80 246,80 0 0 "<1 БГ ЛБ" 0 0 11 16777215
"лба" 259,60 259,60 0 0 "<1 БГ ЛБ" 0 0 11 16777215
"лба" 268,60 268,60 0 0 "<1 БГ ЛБ" 0 0 11 16777215
"лба" 278,00 278,00 0 0 "<1 БГ ЛБ" 0 0 11 16777215
"лба" 284,00 284,00 0 0 "<1 БГ ЛБ" 0 0 11 16777215
"лба" 290,20 290,20 0 0 "<1 БГ ЛБ" 0 0 11 16777215
"лба" 299,40 299,40 0 0 "<1 БГ ЛБ" 0 0 11 16777215
"лба" 309,60 309,60 0 0 "<1 БГ ЛБ" 0 0 11 16777215
"лба" 319,80 319,80 0 0 "<1 БГ ЛБ" 0 0 11 16777215
"лба" 331,60 331,60 0 0 "<1 БГ ЛБ" 0 0 11 16777215
"лба" 341,00 341,00 0 0 "<1 БГ ЛБ" 0 0 11 16777215
"лба" 351,40 351,40 0 0 "<1 БГ ЛБ" 0 0 11 16777215
"лба" 359,40 359,40 0 0 "<1 БГ ЛБ" 0 0 11 16777215
"лба" 370,60 370,60 0 0 "<1 БГ ЛБ" 0 0 11 16777215
"лба" 380,80 380,80 0 0 "<1 БГ ЛБ" 0 0 11 16777215
"лба" 397,80 397,80 0 0 "<1 БГ ЛБ" 0 0 11 16777215
"лба" 415,80 415,80 0 0 "<1 БГ ЛБ" 0 0 11 16777215
"лба" 438,20 438,20 0 0 "<1 БГ ЛБ" 0 0 11 16777215
"лба" 461,00 461,00 0 0 "<1 БГ ЛБ" 0 0 11 16777215
"лба" 485,60 485,60 0 0 "<1 БГ ЛБ" 0 0 11 16777215
"лба" 501,40 501,40 0 0 "<1 БГ ЛБ" 0 0 11 16777215
"лба" 516,80 516,80 0 0 "<1 БГ ЛБ" 0 0 11 16777215
"лба" 531,40 531,40 0 0 "<1 БГ ЛБ" 0 0 11 16777215
"лба" 543,40 543,40 0 0 "<1 БГ ЛБ" 0 0 11 16777215
"лба" 552,40 552,40 0 0 "<1 БГ ЛБ" 0 0 11 16777215
"лба" 559,20 559,20 0 0 "<1 БГ ЛБ" 0 0 11 16777215
"лба" 566,60 566,60 0 0 "<1 БГ ЛБ" 0 0 11 16777215
"лба" 568,90 580,00 0 0 "нет нет нет" 0 0 11 16777215
"лба" 580,00 590,00 0 0 "нет нет нет" 0 0 11 16777215
"лба" 590,00 600,00 0 0 "нет нет нет" 0 0 11 16777215
"лба" 600,00 640,00 0 0 "нет нет нет" 0 0 11 16777215
"лба" 640,00 660,00 0 0 "нет нет нет" 0 0 11 16777215
"лба" 660,00 680,00 0 0 "нет нет нет" 0 0 11 16777215
"лба" 680,20 700,00 0 0 "нет нет нет" 0 0 11 16777215
"сумм_газ" 516,80 516,80 1176749486 0 "Проверка хроматографа" 0 0 10 16777215

# ------------------ ЗНАЧЕНИЯ КРИВЫХ ------------------ #
~ASCII Log Data
# ...
 703.4 1177895095.    2.276   34.81   12.688    2.461   60.08   33.24  126.89   -5.63   62.07   -2.35    1.240    1.5174    0.9808   24.79   30.35   19.61    0.   74.75   12.82   11.12    0.000405    0.000194    0.000036    0.000051    0.000035    0.000089    0.000000   47.90    8.89   12.59    8.64   21.98    0.   74.75  153.0    0.    0.    0.00    0.000    0.00    0.0    0.00    0.00    0.00    0.00    0.    0.    0.00    0.    0.    0.    0.    0.    0.    0.   50.05    4.681  -34.47
 703.6 1177895149.    2.071   35.46   12.875    2.510   59.87   33.45  125.68   -5.65   62.24   -2.36    1.244    1.5175    0.9808   24.88   30.35   19.62    0.   74.84   13.51   13.65    0.000448    0.000257    0.000026    0.000037    0.000042    0.000086    0.000000   57.37    5.80    8.26    9.38   19.20    0.   74.84  153.1    0.    0.    0.00    0.000    0.00    0.0    0.00    0.00    0.00    0.00    0.    0.    0.00    0.    0.    0.    0.    0.    0.    0.   50.17    4.441  -34.89
 703.8 1177895207.    1.870   35.18   12.913    2.455   59.66   33.21  128.45   -5.70   62.28   -2.34    1.247    1.5173    0.9807   24.93   30.35   19.61    0.   74.89   14.05   13.29    0.000440    0.000249    0.000025    0.000050    0.000036    0.000080    0.000000   56.59    5.68   11.36    8.18   18.18    0.   74.89  153.2    0.    0.    0.00    0.000    0.00    0.0    0.00    0.00    0.00    0.00    0.    0.    0.00    0.    0.    0.    0.    0.    0.    0.   50.35    4.270  -34.70
 704.0 1177895263.    1.676   35.99   12.420    2.496   60.08   33.50  126.67   -5.72   62.19   -2.33    1.258    1.5171    0.9807   25.16   30.34   19.61    0.   75.11   13.53   13.27    0.000401    0.000201    0.000029    0.000081    0.000021    0.000069    0.000000   50.12    7.23   20.20    5.24   17.21    0.   75.11  153.4    0.    0.    0.00    0.000    0.00    0.0    0.00    0.00    0.00    0.00    0.    0.    0.00    0.    0.    0.    0.    0.    0.    0.   50.33    4.434  -34.76
 704.2 1177895328.    1.472   35.72   12.580    2.496   59.51   33.49  126.52   -5.74   61.99   -2.35    1.268    1.5173    0.9808   25.36   30.35   19.62    0.   75.32   11.79   12.89    0.000417    0.000271    0.000030    0.000040    0.000018    0.000058    0.000000   64.99    7.19    9.59    4.32   13.91    0.   75.32  153.7    0.    0.    0.00    0.000    0.00    0.0    0.00    0.00    0.00    0.00    0.    0.    0.00    0.    0.    0.    0.    0.    0.    0.   50.69    5.091  -34.41
 704.4 1177895389.    1.282   36.36   11.595    2.577   60.78   33.43  125.82   -5.79   62.09   -2.33    1.268    1.5171    0.9807   25.37   30.34   19.61    0.   75.32   11.91   11.84    0.000441    0.000294    0.000036    0.000029    0.000017    0.000065    0.000000   66.67    8.16    6.58    3.85   14.74    0.   75.32  153.7    0.    0.    0.00    0.000    0.00    0.0    0.00    0.00    0.00    0.00    0.    0.    0.00    0.    0.    0.    0.    0.    0.    0.   50.57    5.039  -34.34
 704.6 1177895434.    1.063   35.86   12.492    2.472   59.99   33.51  125.68   -5.82   62.25   -2.34    1.270    1.5174    0.9808   25.39   30.35   19.62    0.   75.36   17.65   14.71    0.000410    0.000261    0.000036    0.000027    0.000017    0.000069    0.000000   63.66    8.78    6.59    4.15   16.83    0.   75.36  153.8    0.    0.    0.00    0.000    0.00    0.0    0.00    0.00    0.00    0.00    0.    0.    0.00    0.    0.    0.    0.    0.    0.    0.   50.70    3.400  -34.98
 704.8 1177895472.    0.874   36.11   12.240    2.461   59.42   33.46  126.61   -5.83   61.91   -2.32    1.282    1.5174    0.9806   25.63   30.35   19.61    0.   75.59   19.75   16.84    0.000175    0.000033    0.000023    0.000031    0.000020    0.000068    0.000000   18.86   13.14   17.71   11.43   38.86    0.   75.59  154.0    0.    0.    0.00    0.000    0.00    0.0    0.00    0.00    0.00    0.00    0.    0.    0.00    0.    0.    0.    0.    0.    0.    0.   51.51    3.038  -34.53
 705.0 1177895503.    0.671   35.75   12.447    2.564   60.26   33.42  125.65   -5.81   62.05   -2.34    1.291    1.5170    0.9807   25.82   30.34   19.61    0.   75.77   22.48   20.36    0.000175    0.000033    0.000023    0.000031    0.000020    0.000068    0.000000   18.86   13.14   17.71   11.43   38.86    0.   75.77  154.2    0.    0.    0.00    0.000    0.00    0.0    0.00    0.00    0.00    0.00    0.    0.    0.00    0.    0.    0.    0.    0.    0.    0.   49.99    2.669  -34.92
 705.2 1177895547.    0.478   35.90   12.146    2.545   59.86   33.25  125.89   -5.80   62.38   -2.36    1.293    1.5173    0.9806   25.86   30.35   19.61    0.   75.82   16.99   20.61    0.000136    0.000037    0.000032    0.000018    0.000027    0.000022    0.000000   27.21   23.53   13.24   19.85   16.18    0.   75.82  154.3    0.    0.    0.00    0.000    0.00    0.0    0.00    0.00    0.00    0.00    0.    0.    0.00    0.    0.    0.    0.    0.    0.    0.   50.05    3.531  -34.97
 705.4 1177895585.    0.275   35.44   12.327    2.523   59.98   33.49  126.36   -5.83   61.97   -2.35    1.293    1.5170    0.9807   25.85   30.34   19.61    0.   75.81   18.99   18.42    0.000132    0.000037    0.000033    0.000017    0.000028    0.000017    0.000000   28.03   25.00   12.88   21.21   12.88    0.   75.81  154.3    0.    0.    0.00    0.000    0.00    0.0    0.00    0.00    0.00    0.00    0.    0.    0.00    0.    0.    0.    0.    0.    0.    0.   50.41    3.160  -34.30
 705.6 1177895628.    0.076   35.62   12.882    2.367   60.30   33.33  125.97   -5.83   61.99   -2.36    1.293    1.5173    0.9807   25.86   30.35   19.61    0.   75.82   18.07   18.29    0.000186    0.000040    0.000039    0.000032    0.000019    0.000056    0.000000   21.51   20.97   17.20   10.22   30.11    0.   75.82  154.3    0.    0.    0.00    0.000    0.00    0.0    0.00    0.00    0.00    0.00    0.    0.    0.00    0.    0.    0.    0.    0.    0.    0.   49.83    3.321  -34.59
 705.8 1177895667.   -0.144   35.12   12.536    2.448   60.19   33.31  124.22   -5.84   62.16   -2.36    1.294    1.5173    0.9807   25.87   30.35   19.61    0.   75.83   19.23   19.15    0.000190    0.000041    0.000039    0.000033    0.000018    0.000059    0.000000   21.58   20.53   17.37    9.47   31.05    0.   75.83  154.4    0.    0.    0.00    0.000    0.00    0.0    0.00    0.00    0.00    0.00    0.    0.    0.00    0.    0.    0.    0.    0.    0.    0.   49.71    3.120  -34.98
 706.0 1177895711.   -0.322   35.43   12.238    2.328   60.50   33.51  128.07   -5.84   62.07   -2.35    1.294    1.5170    0.9807   25.89   30.34   19.61    0.   75.84   18.99   18.33    0.000136    0.000009    0.000039    0.000012    0.000017    0.000059    0.000000    6.62   28.68    8.82   12.50   43.38    0.   75.84  154.4    0.    0.    0.00    0.000    0.00    0.0    0.00    0.00    0.00    0.00    0.    0.    0.00    0.    0.    0.    0.    0.    0.    0.   49.65    3.160  -34.14
 706.2 1177895753.   -0.517   35.87   12.369    2.359   61.12   33.26  125.25   -5.88   62.00   -2.34    1.295    1.5172    0.9807   25.89   30.34   19.61    0.   75.85   18.07   17.46    0.000151    0.000012    0.000042    0.000013    0.000019    0.000065    0.000000    7.95   27.81    8.61   12.58   43.05    0.   75.85  154.4    0.    0.    0.00    0.000    0.00    0.0    0.00    0.00    0.00    0.00    0.    0.    0.00    0.    0.    0.    0.    0.    0.    0.   49.77    3.321  -34.73
 706.4 1177896890.    0.823   35.13   12.736    2.485   55.98   33.07  128.78   -6.03   62.39   -1.82    1.240    1.5331    1.0279   24.79   30.66   20.56    0.   76.01    3.19   16.51    0.000233    0.000070    0.000036    0.000032    0.000031    0.000064    0.000000   30.04   15.45   13.73   13.30   27.47    0.   76.01  154.6    0.    0.    0.00    0.000    0.00    0.0    0.00    0.00    0.00    0.00    0.    0.    0.00    0.    0.    0.    0.    0.    0.    0.   52.56   18.788  -34.58
 706.6 1177898351.   11.533   34.39   11.467    1.984   61.13   33.23   88.29   -6.20   61.97   -2.36    0.850    1.6310    1.3732   17.00   32.62   27.46    0.   77.08    1.28    2.07    0.000354    0.000226    0.000035    0.000033    0.000021    0.000039    0.000000   63.84    9.89    9.32    5.93   11.02    0.   77.08  155.7    0.    0.    0.00    0.000    0.00    0.0    0.00    0.00    0.00    0.00    0.    0.    0.00    0.    0.    0.    0.    0.    0.    0.   62.84   46.828  -34.34
