# ------- LAS файл, созданный программой "GeoData" ------- #

~Version  information
# ---------------- ИНФОРМАЦИЯ О LAS-ФАЙЛЕ ---------------- #
VERS.                               1.20: CWLS log ASCII Standart - VERSION 1.20
WRAP.                                 NO: One line per depth step

~Well
# ----------------- ЗНАЧЕНИЯ ПАРАМЕТРОВ ------------------ #
NULL.                          -32768.00: Нулевое значение
WELL.                               WELL: 305
FLD .                              FIELD: Луза
STRT.M                              0,20: First depth
STOP.M                           1060,60: Last depth
STEP.M                              0.20: Depth increment
DATE.                           LOG_DATE: 
SRVC.                    SERVICE_COMPANY: 
COMP.                            COMPANY: 
CUST.                           CUSTOMER: 
CNTY.                            COUNTRY: 
METD.                             METHOD: 
DPST.                            DEPOSIT: 
STTP.                        тип_станции: 
GTIP.                         партия_ГТИ: 
CHTP.                   тип_хроматографа: 
GRMT.                   начальник_отряда: 
BOSS.                   начальник_партии: 
DRLM.                        вид_бурения: 
PERS.                          операторы: 
OTR .                       номер_отряда: 
PRJD.M                   проектный_забой: 0,0
ALTR.M                  альтитуда_ротора: 0,0
WDIM.MM                 диаметр_скважины: 0,0
KDIM.MM               диаметр_кондуктора: 0,0
BKND.                  башмак_кондуктора: 0,0
KUST.                               Куст: 

~Curve
# ------------------- НАЗВАНИЯ КРИВЫХ -------------------- #
DEPT.м                                  : Глубина
TIME.                                   : Время
тальблок.м                              : Положение тальблока
вес_на_крюке.т                          : Вес на крюке
нагрузка.т.                             : Нагрузка на долото
момент_ротора.кН*м                      : Крутящий момент ротора
давление_на_входе.атм.                  : Давление ПЖ на входе
расход_на_входе.л/с                     : Расход ПЖ на входе
обороты_ротора.об/мин                   : Обороты ротора
температура_на_выходе.°С                : Температура на выходе
ходы_насоса1.ход/мин                    : Ходы насоса-1
ходы_насоса2.ход/мин                    : Ходы насоса-2
уровень_в_емкости.м                     : Уровень-1
уровень_в_емкости2.м                    : Уровень-2
уровень_в_емкости3.м                    : Уровень-3
объем_в_емкости1.м3                     : Объём-1
объем_в_емкости2.м3                     : Объём-2
объем_в_емкости3.м3                     : Объём-3
глубина_над_забоем.м                    : Глубина над забоем
объем_актив_емкости.м3                  : Объем ПЖ в активн.ёмкостях
скорость_механическая.м/ч               : Скорость механическая
скорость_бурения.м/ч                    : Скорость бурения
сумм_газ.%                              : Сумма газов хром.
метан_абс.%                             : Метан абс.
этан_абс.%                              : Этан абс.
пропан_абс.%                            : Пропан абс.
бутан_абс.%                             : Бутан абс.
пентан_абс.%                            : Пентан абс.
гексан_абс.%                            : Гексан абс.
метан_отн.%                             : Метан отн.
этан_отн.%                              : Этан отн.
пропан_отн.%                            : Пропан отн.
бутан_отн.%                             : Бутан отн.
пентан_отн.%                            : Пентан отн.
гексан_отн.%                            : Гексан отн.
объем_емкости.м3                        : Объем ПЖ в емкостях
объем_раствора.м3                       : Общий V раствора
PLOT.г/см3                              : Плот.пор.
POR .                                   : Пористость
CLCT.%                                  : Кальцит
DLMT.%                                  : Доломит
NO  .%                                  : Н.О.
LITO.                                   : Литология
SHL2.                                   : Шлам-2
SHL3.                                   : Шлам-3
SHL4.                                   : Шлам-4
SHL5.                                   : Шлам-5
SHL6.                                   : Шлам-6
nfst.                                   : Нефтенасыщенность
shl1.                                   : shl1
F1  .%                                  : Ф1
F2  .%                                  : Ф2
F3  .%                                  : Ф3
F4  .%                                  : Ф4
F5  .%                                  : Ф5
F6  .%                                  : Ф6
F7  .%                                  : Ф7
расход_на_выходе.%                      : Расход ПЖ на выходе
дмк .мин/м                              : ДМК
параметр1.атм                           : Параметр - 1

~Other Information
# --------------------- ТЕКСТОВЫЕ ДАННЫЕ --------------------- #
"лба" 22,40 22,40 0 0 "<1 БГ ЛБ" 0 0 11 16777215
"лба" 39,60 39,60 0 0 "<1 БГ ЛБ" 0 0 11 16777215
"лба" 58,40 58,40 0 0 "<1 БГ ЛБ" 0 0 11 16777215
"лба" 78,80 78,80 0 0 "<1 БГ ЛБ" 0 0 11 16777215
"лба" 99,20 99,20 0 0 "<1 БГ ЛБ" 0 0 11 16777215
"лба" 114,80 114,80 0 0 "<1 БГ ЛБ" 0 0 11 16777215
"лба" 131,00 131,00 0 0 "<1 БГ ЛБ" 0 0 11 16777215
"лба" 146,40 146,40 0 0 "<1 БГ ЛБ" 0 0 11 16777215
"лба" 163,20 163,20 0 0 "<1 БГ ЛБ" 0 0 11 16777215
"лба" 181,20 181,20 0 0 "<1 БГ ЛБ" 0 0 11 16777215
"лба" 197,20 197,20 0 0 "<1 БГ ЛБ" 0 0 11 16777215
"лба" 211,00 211,00 0 0 "<1 БГ ЛБ" 0 0 11 16777215
"лба" 221,80 221,80 0 0 "<1 БГ ЛБ" 0 0 11 16777215
"лба" 234,00 234,00 0 0 "<1 БГ ЛБ" 0 0 11 16777215
"лба" 246,80 246,80 0 0 "<1 БГ ЛБ" 0 0 11 16777215
"лба" 259,60 259,60 0 0 "<1 БГ ЛБ" 0 0 11 16777215
"лба" 268,60 268,60 0 0 "<1 БГ ЛБ" 0 0 11 16777215
"лба" 278,00 278,00 0 0 "<1 БГ ЛБ" 0 0 11 16777215
"лба" 284,00 284,00 0 0 "<1 БГ ЛБ" 0 0 11 16777215
"лба" 290,20 290,20 0 0 "<1 БГ ЛБ" 0 0 11 16777215
"лба" 299,40 299,40 0 0 "<1 БГ ЛБ" 0 0 11 16777215
"лба" 309,60 309,60 0 0 "<1 БГ ЛБ" 0 0 11 16777215
"лба" 319,80 319,80 0 0 "<1 БГ ЛБ" 0 0 11 16777215
"лба" 331,60 331,60 0 0 "<1 БГ ЛБ" 0 0 11 16777215
"лба" 341,00 341,00 0 0 "<1 БГ ЛБ" 0 0 11 16777215
"лба" 351,40 351,40 0 0 "<1 БГ ЛБ" 0 0 11 16777215
"лба" 359,40 359,40 0 0 "<1 БГ ЛБ" 0 0 11 16777215
"лба" 370,60 370,60 0 0 "<1 БГ ЛБ" 0 0 11 16777215
"лба" 380,80 380,80 0 0 "<1 БГ ЛБ" 0 0 11 16777215
"лба" 397,80 397,80 0 0 "<1 БГ ЛБ" 0 0 11 16777215
"лба" 415,80 415,80 0 0 "<1 БГ ЛБ" 0 0 11 16777215
"лба" 438,20 438,20 0 0 "<1 БГ ЛБ" 0 0 11 16777215
"лба" 461,00 461,00 0 0 "<1 БГ ЛБ" 0 0 11 16777215
"лба" 485,60 485,60 0 0 "<1 БГ ЛБ" 0 0 11 16777215
"лба" 501,40 501,40 0 0 "<1 БГ ЛБ" 0 0 11 16777215
"лба" 516,80 516,80 0 0 "<1 БГ ЛБ" 0 0 11 16777215
"лба" 531,40 531,40 0 0 "<1 БГ ЛБ" 0 0 11 16777215
"лба" 543,40 543,40 0 0 "<1 БГ ЛБ" 0 0 11 16777215
"лба" 552,40 552,40 0 0 "<1 БГ ЛБ" 0 0 11 16777215
"лба" 559,20 559,20 0 0 "<1 БГ ЛБ" 0 0 11 16777215
"лба" 566,60 566,60 0 0 "<1 БГ ЛБ" 0 0 11 16777215
"лба" 568,90 580,00 0 0 "нет нет нет" 0 0 11 16777215
"лба" 580,00 590,00 0 0 "нет нет нет" 0 0 11 16777215
"лба" 590,00 600,00 0 0 "нет нет нет" 0 0 11 16777215
"лба" 600,00 640,00 0 0 "нет нет нет" 0 0 11 16777215
"лба" 640,00 660,00 0 0 "нет нет нет" 0 0 11 16777215
"лба" 660,00 680,00 0 0 "нет нет нет" 0 0 11 16777215
"лба" 680,20 700,00 0 0 "нет нет нет" 0 0 11 16777215
"сумм_газ" 516,80 516,80 1176749486 0 "Проверка хроматографа" 0 0 10 16777215

# ------------------ ЗНАЧЕНИЯ КРИВЫХ ------------------ #
~ASCII Log Data
# ...
 564.0 1176981524.    4.809   25.65   10.727    1.665   56.40   29.88   62.43   21.47   50.60   -0.20    1.058    0.6561    0.6016   21.16   13.12   12.03    0.   46.32   11.07    8.90    0.000071    0.000003    0.000031    0.000009    0.000016    0.000012    0.000000    4.23   43.66   12.68   22.54   16.90    0.   46.32  107.6    0.    0.   15.00    0.000   85.00    4.0    5.10   10.10    0.00    0.00    0.    0.    4.80    0.    0.    0.    0.    0.    0.    0.   26.93    5.420  -31.82
 564.2 1176981568.    4.612   25.09   11.620    1.697   56.62   29.79   62.55   21.37   50.63   -0.20    1.055    0.6560    0.6016   21.11   13.12   12.03    0.   46.26   16.99   15.09    0.000082    0.000001    0.000029    0.000018    0.000018    0.000016    0.000000    1.22   35.37   21.95   21.95   19.51    0.   46.26  107.5    0.    0.   15.00    0.000   85.00    4.0    5.10   10.10    0.00    0.00    0.    0.    4.80    0.    0.    0.    0.    0.    0.    0.   26.98    3.531  -31.64
 564.4 1176981640.    4.409   25.14   11.325    1.772   56.90   29.83   62.48   21.34   50.51   -0.20    1.057    0.6561    0.6015   21.13   13.12   12.03    0.   46.28    9.62   12.57    0.000082    0.000002    0.000030    0.000017    0.000018    0.000015    0.000000    2.44   36.59   20.73   21.95   18.29    0.   46.28  107.6    0.    0.   15.00    0.000   85.00    4.0    5.10   10.10    0.00    0.00    0.    0.    4.80    0.    0.    0.    0.    0.    0.    0.   27.00    6.234  -31.87
 564.6 1176981707.    4.206   27.54    8.667    2.006   57.18   29.76   61.88   21.12   50.56   -0.20    1.054    0.6561    0.6016   21.10   13.12   12.03    0.   46.25   11.33   11.15    0.000077    0.000002    0.000032    0.000013    0.000017    0.000013    0.000000    2.60   41.56   16.88   22.08   16.88    0.   46.25  107.6    0.    0.   15.00    0.000   85.00    4.0    5.10   10.10    0.00    0.00    0.    0.    4.80    0.    0.    0.    0.    0.    0.    0.   27.00    5.298  -31.83
 564.8 1176981749.    3.998   26.63   10.122    1.617   57.05   29.77   62.56   20.97   50.45   -0.21    1.055    0.6561    0.6015   21.09   13.12   12.03    0.   46.25   16.06   13.27    0.000073    0.000001    0.000035    0.000008    0.000017    0.000012    0.000000    1.37   47.95   10.96   23.29   16.44    0.   46.25  107.6    0.    0.   15.00    0.000   85.00    4.0    5.10   10.10    0.00    0.00    0.    0.    4.80    0.    0.    0.    0.    0.    0.    0.   26.99    3.736  -31.68
 565.0 1176982893.    3.812   25.34   11.064    1.576   56.97   29.79   62.04   21.83   50.65   -0.21    1.055    0.6560    0.6014   21.08   13.12   12.03    0.   46.23    6.04    8.50    0.000101    0.000003    0.000036    0.000015    0.000030    0.000017    0.000000    2.97   35.64   14.85   29.70   16.83    0.   46.23  107.6    0.    0.   15.00    0.000   85.00   10.0    5.10   10.10    0.00    0.00    0.    0.    4.80    0.    0.    0.    0.    0.    0.    0.   27.20    9.936  -31.23
 565.2 1176982940.    3.611   25.58   11.044    1.696   57.40   29.80   61.76   19.87   50.55   -0.21    1.054    0.6557    0.6014   21.09   13.11   12.03    0.   46.23   15.55   11.05    0.000119    0.000047    0.000020    0.000013    0.000019    0.000020    0.000000   39.50   16.81   10.92   15.97   16.81    0.   46.23  107.6    0.    0.   15.00    0.000   85.00   10.0    5.10   10.10    0.00    0.00    0.    0.    4.80    0.    0.    0.    0.    0.    0.    0.   27.25    3.859  -31.10
 565.4 1176982976.    3.398   24.83   11.341    1.656   57.28   30.03   62.34   19.73   50.42   -0.21    1.052    0.6558    0.6014   21.05   13.12   12.03    0.   46.19   19.52   17.64    0.000127    0.000054    0.000022    0.000012    0.000020    0.000019    0.000000   42.52   17.32    9.45   15.75   14.96    0.   46.19  107.6    0.    0.   15.00    0.000   85.00   10.0    5.10   10.10    0.00    0.00    0.    0.    4.80    0.    0.    0.    0.    0.    0.    0.   27.86    3.074  -31.02
 565.6 1176983016.    3.217   25.34   11.311    1.580   57.62   30.04   62.38   19.63   50.34   -0.21    1.051    0.6555    0.6013   21.02   13.11   12.03    0.   46.15   18.74   18.80    0.000207    0.000110    0.000044    0.000009    0.000029    0.000015    0.000000   53.14   21.26    4.35   14.01    7.25    0.   46.15  107.6    0.    0.   15.00    0.000   85.00   10.0    5.10   10.10    0.00    0.00    0.    0.    4.80    0.    0.    0.    0.    0.    0.    0.   26.84    3.203  -31.04
 565.8 1176983058.    3.006   25.64   11.131    1.700   57.22   29.95   61.79   19.48   50.46   -0.21    1.051    0.6557    0.6013   21.02   13.11   12.03    0.   46.16   17.40   18.29    0.000218    0.000118    0.000043    0.000011    0.000031    0.000015    0.000000   54.13   19.72    5.05   14.22    6.88    0.   46.16  107.6    0.    0.   15.00    0.000   85.00   10.0    5.10   10.10    0.00    0.00    0.    0.    4.80    0.    0.    0.    0.    0.    0.    0.   30.58    3.449  -30.68
 566.0 1176983097.    2.806   26.03   10.682    1.643   57.57   30.05   62.66   19.39   50.60   -0.21    1.052    0.6554    0.6013   21.03   13.11   12.03    0.   46.17   18.01   17.44    0.000290    0.000167    0.000036    0.000023    0.000048    0.000016    0.000000   57.59   12.41    7.93   16.55    5.52    0.   46.17  107.7    0.    0.   15.00    0.000   85.00   10.0    5.10   10.10    0.00    0.00    0.    0.    4.80    0.    0.    0.    0.    0.    0.    0.   27.90    3.331  -30.61
 566.2 1176983137.    2.607   25.52   11.099    1.668   57.20   29.93   62.64   19.45   50.55   -0.21    1.057    0.6555    0.6013   21.15   13.11   12.03    0.   46.28   18.27   17.96    0.000292    0.000165    0.000038    0.000022    0.000051    0.000016    0.000000   56.51   13.01    7.53   17.47    5.48    0.   46.28  107.8    0.    0.   15.00    0.000   85.00   10.0    5.10   10.10    0.00    0.00    0.    0.    4.80    0.    0.    0.    0.    0.    0.    0.   28.93    3.285  -30.76
 566.4 1176983173.    2.412   25.51   11.376    1.602   57.01   29.92   62.34   20.06   50.43   -0.21    1.058    0.6558    0.6013   21.16   13.12   12.03    0.   46.30   19.52   19.12    0.000295    0.000151    0.000048    0.000014    0.000070    0.000012    0.000000   51.19   16.27    4.75   23.73    4.07    0.   46.30  107.8    0.    0.   15.00    0.000   85.00   10.0    5.10   10.10    0.00    0.00    0.    0.    4.80    0.    0.    0.    0.    0.    0.    0.   29.48    3.074  -30.79
 566.6 1176983214.    2.214   25.55   11.190    1.673   57.47   29.89   62.10   20.61   50.44   -0.21    1.058    0.6558    0.6013   21.16   13.12   12.03    0.   46.30   18.27   19.57    0.000292    0.000150    0.000048    0.000014    0.000068    0.000012    0.000000   51.37   16.44    4.79   23.29    4.11    0.   46.30  107.9    0.    0.   15.00    0.000   85.00   10.0    5.10   10.10    0.00    0.00    0.    0.    4.80    0.    0.    0.    0.    0.    0.    0.   29.20    3.285  -30.58
 566.8 1176983254.    2.005   25.50   11.161    1.594   57.45   29.85   62.47   21.61   50.46   -0.21    1.054    0.6558    0.6013   21.08   13.12   12.03    0.   46.22   18.27   18.39    0.000180    0.000107    0.000032    0.000011    0.000017    0.000013    0.000000   59.44   17.78    6.11    9.44    7.22    0.   46.22  107.8    0.    0.   15.00    0.000   85.00   10.0    5.10   10.10    0.00    0.00    0.    0.    4.80    0.    0.    0.    0.    0.    0.    0.   28.12    3.285  -30.66
 567.0 1176983293.    1.812   25.60   10.930    1.563   57.37   29.77   62.12   21.91   50.36   -0.22    1.056    0.6555    0.6011   21.11   13.11   12.02    0.   46.25   18.01   17.90    0.000180    0.000107    0.000032    0.000011    0.000017    0.000013    0.000000   59.44   17.78    6.11    9.44    7.22    0.   46.25  107.9    0.    0.   15.00    0.000   85.00    4.0    5.10   10.10    0.00    0.00    0.    0.    4.80    0.    0.    0.    0.    0.    0.    0.   28.32    3.331  -30.83
 567.2 1176983335.    1.610   25.73   11.030    1.556   57.16   29.91   62.32   21.91   50.41   -0.22    1.057    0.6556    0.6011   21.14   13.11   12.02    0.   46.28   17.40   17.89    0.000203    0.000055    0.000045    0.000013    0.000073    0.000017    0.000000   27.09   22.17    6.40   35.96    8.37    0.   46.28  107.9    0.    0.   15.00    0.000   85.00    4.0    5.10   10.10    0.00    0.00    0.    0.    4.80    0.    0.    0.    0.    0.    0.    0.   28.40    3.449  -30.74
