# ------- LAS файл, созданный программой "GeoData" ------- #

~Version  information
# ---------------- ИНФОРМАЦИЯ О LAS-ФАЙЛЕ ---------------- #
VERS.                               1.20: CWLS log ASCII Standart - VERSION 1.20
WRAP.                                 NO: One line per depth step

~Well
# ----------------- ЗНАЧЕНИЯ ПАРАМЕТРОВ ------------------ #
NULL.                          -32768.00: Нулевое значение
WELL.                               WELL: 305
FLD .                              FIELD: Луза
STRT.M                              0,20: First depth
STOP.M                           1060,60: Last depth
STEP.M                              0.20: Depth increment
DATE.                           LOG_DATE: 
SRVC.                    SERVICE_COMPANY: 
COMP.                            COMPANY: 
CUST.                           CUSTOMER: 
CNTY.                            COUNTRY: 
METD.                             METHOD: 
DPST.                            DEPOSIT: 
STTP.                        тип_станции: 
GTIP.                         партия_ГТИ: 
CHTP.                   тип_хроматографа: 
GRMT.                   начальник_отряда: 
BOSS.                   начальник_партии: 
DRLM.                        вид_бурения: 
PERS.                          операторы: 
OTR .                       номер_отряда: 
PRJD.M                   проектный_забой: 0,0
ALTR.M                  альтитуда_ротора: 0,0
WDIM.MM                 диаметр_скважины: 0,0
KDIM.MM               диаметр_кондуктора: 0,0
BKND.                  башмак_кондуктора: 0,0
KUST.                               Куст: 

~Curve
# ------------------- НАЗВАНИЯ КРИВЫХ -------------------- #
DEPT.м                                  : Глубина
TIME.                                   : Время
тальблок.м                              : Положение тальблока
вес_на_крюке.т                          : Вес на крюке
нагрузка.т.                             : Нагрузка на долото
момент_ротора.кН*м                      : Крутящий момент ротора
давление_на_входе.атм.                  : Давление ПЖ на входе
расход_на_входе.л/с                     : Расход ПЖ на входе
обороты_ротора.об/мин                   : Обороты ротора
температура_на_выходе.°С                : Температура на выходе
ходы_насоса1.ход/мин                    : Ходы насоса-1
ходы_насоса2.ход/мин                    : Ходы насоса-2
уровень_в_емкости.м                     : Уровень-1
уровень_в_емкости2.м                    : Уровень-2
уровень_в_емкости3.м                    : Уровень-3
объем_в_емкости1.м3                     : Объём-1
объем_в_емкости2.м3                     : Объём-2
объем_в_емкости3.м3                     : Объём-3
глубина_над_забоем.м                    : Глубина над забоем
объем_актив_емкости.м3                  : Объем ПЖ в активн.ёмкостях
скорость_механическая.м/ч               : Скорость механическая
скорость_бурения.м/ч                    : Скорость бурения
сумм_газ.%                              : Сумма газов хром.
метан_абс.%                             : Метан абс.
этан_абс.%                              : Этан абс.
пропан_абс.%                            : Пропан абс.
бутан_абс.%                             : Бутан абс.
пентан_абс.%                            : Пентан абс.
гексан_абс.%                            : Гексан абс.
метан_отн.%                             : Метан отн.
этан_отн.%                              : Этан отн.
пропан_отн.%                            : Пропан отн.
бутан_отн.%                             : Бутан отн.
пентан_отн.%                            : Пентан отн.
гексан_отн.%                            : Гексан отн.
объем_емкости.м3                        : Объем ПЖ в емкостях
объем_раствора.м3                       : Общий V раствора
PLOT.г/см3                              : Плот.пор.
POR .                                   : Пористость
CLCT.%                                  : Кальцит
DLMT.%                                  : Доломит
NO  .%                                  : Н.О.
LITO.                                   : Литология
SHL2.                                   : Шлам-2
SHL3.                                   : Шлам-3
SHL4.                                   : Шлам-4
SHL5.                                   : Шлам-5
SHL6.                                   : Шлам-6
nfst.                                   : Нефтенасыщенность
shl1.                                   : shl1
F1  .%                                  : Ф1
F2  .%                                  : Ф2
F3  .%                                  : Ф3
F4  .%                                  : Ф4
F5  .%                                  : Ф5
F6  .%                                  : Ф6
F7  .%                                  : Ф7
расход_на_выходе.%                      : Расход ПЖ на выходе
дмк .мин/м                              : ДМК
параметр1.атм                           : Параметр - 1

~Other Information
# --------------------- ТЕКСТОВЫЕ ДАННЫЕ --------------------- #
"лба" 22,40 22,40 0 0 "<1 БГ ЛБ" 0 0 11 16777215
"лба" 39,60 39,60 0 0 "<1 БГ ЛБ" 0 0 11 16777215
"лба" 58,40 58,40 0 0 "<1 БГ ЛБ" 0 0 11 16777215
"лба" 78,80 78,80 0 0 "<1 БГ ЛБ" 0 0 11 16777215
"лба" 99,20 99,20 0 0 "<1 БГ ЛБ" 0 0 11 16777215
"лба" 114,80 114,80 0 0 "<1 БГ ЛБ" 0 0 11 16777215
"лба" 131,00 131,00 0 0 "<1 БГ ЛБ" 0 0 11 16777215
"лба" 146,40 146,40 0 0 "<1 БГ ЛБ" 0 0 11 16777215
"лба" 163,20 163,20 0 0 "<1 БГ ЛБ" 0 0 11 16777215
"лба" 181,20 181,20 0 0 "<1 БГ ЛБ" 0 0 11 16777215
"лба" 197,20 197,20 0 0 "<1 БГ ЛБ" 0 0 11 16777215
"лба" 211,00 211,00 0 0 "<1 БГ ЛБ" 0 0 11 16777215
"лба" 221,80 221,80 0 0 "<1 БГ ЛБ" 0 0 11 16777215
"лба" 234,00 234,00 0 0 "<1 БГ ЛБ" 0 0 11 16777215
"лба" 246,80 246,80 0 0 "<1 БГ ЛБ" 0 0 11 16777215
"лба" 259,60 259,60 0 0 "<1 БГ ЛБ" 0 0 11 16777215
"лба" 268,60 268,60 0 0 "<1 БГ ЛБ" 0 0 11 16777215
"лба" 278,00 278,00 0 0 "<1 БГ ЛБ" 0 0 11 16777215
"лба" 284,00 284,00 0 0 "<1 БГ ЛБ" 0 0 11 16777215
"лба" 290,20 290,20 0 0 "<1 БГ ЛБ" 0 0 11 16777215
"лба" 299,40 299,40 0 0 "<1 БГ ЛБ" 0 0 11 16777215
"лба" 309,60 309,60 0 0 "<1 БГ ЛБ" 0 0 11 16777215
"лба" 319,80 319,80 0 0 "<1 БГ ЛБ" 0 0 11 16777215
"лба" 331,60 331,60 0 0 "<1 БГ ЛБ" 0 0 11 16777215
"лба" 341,00 341,00 0 0 "<1 БГ ЛБ" 0 0 11 16777215
"лба" 351,40 351,40 0 0 "<1 БГ ЛБ" 0 0 11 16777215
"лба" 359,40 359,40 0 0 "<1 БГ ЛБ" 0 0 11 16777215
"лба" 370,60 370,60 0 0 "<1 БГ ЛБ" 0 0 11 16777215
"лба" 380,80 380,80 0 0 "<1 БГ ЛБ" 0 0 11 16777215
"лба" 397,80 397,80 0 0 "<1 БГ ЛБ" 0 0 11 16777215
"лба" 415,80 415,80 0 0 "<1 БГ ЛБ" 0 0 11 16777215
"лба" 438,20 438,20 0 0 "<1 БГ ЛБ" 0 0 11 16777215
"лба" 461,00 461,00 0 0 "<1 БГ ЛБ" 0 0 11 16777215
"лба" 485,60 485,60 0 0 "<1 БГ ЛБ" 0 0 11 16777215
"лба" 501,40 501,40 0 0 "<1 БГ ЛБ" 0 0 11 16777215
"лба" 516,80 516,80 0 0 "<1 БГ ЛБ" 0 0 11 16777215
"лба" 531,40 531,40 0 0 "<1 БГ ЛБ" 0 0 11 16777215
"лба" 543,40 543,40 0 0 "<1 БГ ЛБ" 0 0 11 16777215
"лба" 552,40 552,40 0 0 "<1 БГ ЛБ" 0 0 11 16777215
"лба" 559,20 559,20 0 0 "<1 БГ ЛБ" 0 0 11 16777215
"лба" 566,60 566,60 0 0 "<1 БГ ЛБ" 0 0 11 16777215
"лба" 568,90 580,00 0 0 "нет нет нет" 0 0 11 16777215
"лба" 580,00 590,00 0 0 "нет нет нет" 0 0 11 16777215
"лба" 590,00 600,00 0 0 "нет нет нет" 0 0 11 16777215
"лба" 600,00 640,00 0 0 "нет нет нет" 0 0 11 16777215
"лба" 640,00 660,00 0 0 "нет нет нет" 0 0 11 16777215
"лба" 660,00 680,00 0 0 "нет нет нет" 0 0 11 16777215
"лба" 680,20 700,00 0 0 "нет нет нет" 0 0 11 16777215
"сумм_газ" 516,80 516,80 1176749486 0 "Проверка хроматографа" 0 0 10 16777215

# ------------------ ЗНАЧЕНИЯ КРИВЫХ ------------------ #
~ASCII Log Data
# ...
 210.2 1176585832.    3.267   18.64    4.456    1.704   37.87   33.13   57.92   24.46   61.48    0.18    1.170    0.6907    0.4040   23.40   13.81    8.08    0.   45.29   17.55   16.72    0.000440    0.000360    0.000030    0.000009    0.000027    0.000014    0.000000   81.82    6.82    2.05    6.14    3.18    0.   45.29   63.5    0.    0.    5.00    0.000   95.00    7.0    4.20    7.10    0.00    0.00    0.    0.    3.70    0.    0.    0.    0.    0.    0.    0.   32.43    3.420  -58.57
 210.4 1176585909.    3.071   19.34    3.759    1.700   38.02   33.08   58.63   24.42   61.37    0.11    1.170    0.6922    0.4039   23.40   13.84    8.08    0.   45.32    9.34   13.46    0.000753    0.000675    0.000029    0.000011    0.000024    0.000014    0.000000   89.64    3.85    1.46    3.19    1.86    0.   45.32   63.6    0.    0.    5.00    0.000   95.00    3.0    4.20    7.10    0.00    0.00    0.    0.    3.70    0.    0.    0.    0.    0.    0.    0.   32.44    6.422  -60.26
 210.6 1176585984.    2.870   19.94    3.162    0.863   37.67   33.05   58.69   19.47   61.48    0.15    1.170    0.6897    0.4038   23.40   13.79    8.08    0.   45.27    9.85    9.87    0.000633    0.000560    0.000026    0.000008    0.000024    0.000015    0.000000   88.47    4.11    1.26    3.79    2.37    0.   45.27   63.5    0.    0.    5.00    0.000   95.00    3.0    4.20    7.10    0.00    0.00    0.    0.    3.70    0.    0.    0.    0.    0.    0.    0.   32.45    6.088  -55.94
 210.8 1176586040.    2.660   18.80    4.297    1.234   37.96   33.10   58.33   14.41   61.46    0.12    1.180    0.6908    0.4039   23.59   13.82    8.08    0.   45.48   12.85   11.39    0.000615    0.000552    0.000021    0.000007    0.000019    0.000016    0.000000   89.76    3.41    1.14    3.09    2.60    0.   45.48   63.8    0.    0.    5.00    0.000   95.00    3.0    4.20    7.10    0.00    0.00    0.    0.    3.70    0.    0.    0.    0.    0.    0.    0.   32.45    4.671  -55.00
 211.0 1176586098.    2.468   18.40    4.700    1.239   37.93   33.06   58.07   11.94   61.44    0.14    1.198    0.6911    0.4038   23.95   13.83    8.08    0.   45.85   12.92   12.71    0.000567    0.000494    0.000020    0.000015    0.000021    0.000017    0.000000   87.13    3.53    2.65    3.70    3.00    0.   45.85   64.2    0.    0.    5.00    0.000   95.00    3.0    4.20    7.10    0.00    0.00    0.    0.    3.70    0.    0.    0.    0.    0.    0.    0.   32.45    4.644  -58.61
 211.2 1176586169.    2.251   19.31    3.789    1.103   38.02   33.05   58.21   10.52   61.23    0.14    1.213    0.6921    0.4039   24.27   13.84    8.08    0.   46.18    9.71   11.70    0.000477    0.000389    0.000021    0.000025    0.000025    0.000017    0.000000   81.55    4.40    5.24    5.24    3.56    0.   46.18   64.5    0.    0.    5.00    0.000   95.00    3.0    4.20    7.10    0.00    0.00    0.    0.    3.70    0.    0.    0.    0.    0.    0.    0.   32.46    6.179  -55.26
 211.4 1176586238.    2.070   19.28    3.815    1.020   37.97   33.08   58.62    9.57   61.58    0.08    1.231    0.6933    0.4039   24.62   13.87    8.08    0.   46.57   10.86    9.73    0.000436    0.000362    0.000029    0.000009    0.000019    0.000017    0.000000   83.03    6.65    2.06    4.36    3.90    0.   46.57   64.9    0.    0.    5.00    0.000   95.00    3.0    4.20    7.10    0.00    0.00    0.    0.    3.70    0.    0.    0.    0.    0.    0.    0.   32.43    5.525  -59.74
 211.6 1176586302.    1.862   19.34    3.756    1.016   37.92   33.13   58.42    8.78   61.46    0.11    1.231    0.6950    0.4038   24.62   13.90    8.08    0.   46.60   11.24   10.99    0.000464    0.000380    0.000024    0.000020    0.000019    0.000021    0.000000   81.90    5.17    4.31    4.09    4.53    0.   46.60   65.0    0.    0.    5.00    0.000   95.00    3.0    4.20    7.10    0.00    0.00    0.    0.    3.70    0.    0.    0.    0.    0.    0.    0.   32.42    5.338  -58.18
 211.8 1176586344.    1.657   18.23    4.873    1.442   38.09   32.96   58.28    8.41   61.48    0.11    1.234    0.6955    0.4038   24.67   13.91    8.08    0.   46.66   17.13   14.01    0.000461    0.000384    0.000028    0.000013    0.000018    0.000018    0.000000   83.30    6.07    2.82    3.90    3.90    0.   46.66   65.1    0.    0.    5.00    0.000   95.00    3.0    4.20    7.10    0.00    0.00    0.    0.    3.70    0.    0.    0.    0.    0.    0.    0.   32.44    3.503  -54.47
 212.0 1176586393.    1.460   18.56    4.545    1.336   38.13   32.96   58.02    8.16   61.53    0.13    1.242    0.6948    0.4039   24.84   13.90    8.08    0.   46.82   14.07   16.49    0.000458    0.000386    0.000030    0.000008    0.000018    0.000016    0.000000   84.28    6.55    1.75    3.93    3.49    0.   46.82   65.3    0.    0.    5.00    0.000   95.00    3.0    4.20    7.10    0.00    0.00    0.    0.    3.70    0.    0.    0.    0.    0.    0.    0.   32.46    4.264  -57.25
 212.2 1176586440.    1.264   18.49    4.609    1.281   36.58   33.02   58.23    7.91   61.66    0.13    1.243    0.6928    0.4039   24.87   13.85    8.08    0.   46.80   16.29   15.46    0.000512    0.000411    0.000037    0.000021    0.000027    0.000016    0.000000   80.27    7.23    4.10    5.27    3.12    0.   46.80   65.3    0.    0.    5.00    0.000   95.00    3.0    4.20    7.10    0.00    0.00    0.    0.    3.70    0.    0.    0.    0.    0.    0.    0.   32.46    3.683  -55.56
 212.4 1176586502.    1.064   19.29    3.807    1.130   36.58   33.01   58.15    7.61   61.60    0.12    1.243    0.6953    0.4038   24.87   13.90    8.08    0.   46.85   11.60   13.81    0.000466    0.000369    0.000034    0.000023    0.000025    0.000015    0.000000   79.18    7.30    4.94    5.36    3.22    0.   46.85   65.3    0.    0.    5.00    0.000   95.00    3.0    4.20    7.10    0.00    0.00    0.    0.    3.70    0.    0.    0.    0.    0.    0.    0.   32.46    5.171  -59.00
 212.6 1176590150.    2.698   18.81    4.551    1.489   36.58   32.91   58.38    8.28   61.58    0.11    1.238    0.6936    0.4038   24.77   13.87    8.08    0.   46.72    8.88   12.11    0.000270    0.000168    0.000035    0.000023    0.000023    0.000021    0.000000   62.22   12.96    8.52    8.52    7.78    0.   46.72   65.2    0.    0.    5.00    0.000   95.00    3.0    4.20    7.10    0.00    0.00    0.    0.    3.70    0.    0.    0.    0.    0.    0.    0.   32.65    6.756  -55.71
 212.8 1176590201.   13.537   20.24    4.658    1.702   36.58   33.15   58.77   24.63   61.07    0.23    1.208    0.6957    0.4035   24.17   13.91    8.07    0.   46.15   13.26    8.02    0.000186    0.000081    0.000029    0.000037    0.000017    0.000022    0.000000   43.55   15.59   19.89    9.14   11.83    0.   46.15   64.6    0.    0.    5.00    0.000   95.00    3.0    4.20    7.10    0.00    0.00    0.    0.    3.70    0.    0.    0.    0.    0.    0.    0.   32.65    4.526  -51.67
 213.0 1176590242.   13.342   20.77    4.093    1.738   36.58   33.09   58.28   24.65   61.30    0.23    1.208    0.6951    0.4032   24.16   13.91    8.06    0.   46.13   17.55   14.15    0.000176    0.000072    0.000023    0.000048    0.000014    0.000019    0.000000   40.91   13.07   27.27    7.95   10.80    0.   46.13   64.6    0.    0.    5.00    0.000   95.00    3.0    4.20    7.10    0.00    0.00    0.    0.    3.70    0.    0.    0.    0.    0.    0.    0.   32.65    3.420  -51.58
 213.2 1176590286.   13.140   19.48    5.417    1.930   36.42   33.06   58.52   24.66   61.38    0.23    1.207    0.6935    0.4029   24.14   13.87    8.06    0.   46.07   15.99   17.90    0.000217    0.000111    0.000042    0.000021    0.000020    0.000023    0.000000   51.15   19.35    9.68    9.22   10.60    0.   46.07   64.6    0.    0.    5.00    0.000   95.00    3.0    4.20    7.10    0.00    0.00    0.    0.    3.70    0.    0.    0.    0.    0.    0.    0.   32.65    3.753  -53.33
 213.4 1176590323.   12.933   19.81    5.084    2.014   36.26   33.11   57.72   24.66   60.71    0.24    1.212    0.6947    0.4029   24.24   13.89    8.06    0.   46.19   19.44   16.55    0.000222    0.000116    0.000044    0.000017    0.000021    0.000024    0.000000   52.25   19.82    7.66    9.46   10.81    0.   46.19   64.7    0.    0.    5.00    0.000   95.00    3.0    4.20    7.10    0.00    0.00    0.    0.    3.70    0.    0.    0.    0.    0.    0.    0.   32.65    3.086  -50.00
