# ------- LAS файл, созданный программой "GeoData" ------- #

~Version  information
# ---------------- ИНФОРМАЦИЯ О LAS-ФАЙЛЕ ---------------- #
VERS.                               1.20: CWLS log ASCII Standart - VERSION 1.20
WRAP.                                 NO: One line per depth step

~Well
# ----------------- ЗНАЧЕНИЯ ПАРАМЕТРОВ ------------------ #
NULL.                          -32768.00: Нулевое значение
WELL.                               WELL: 305
FLD .                              FIELD: Луза
STRT.M                              0,20: First depth
STOP.M                           1060,60: Last depth
STEP.M                              0.20: Depth increment
DATE.                           LOG_DATE: 
SRVC.                    SERVICE_COMPANY: 
COMP.                            COMPANY: 
CUST.                           CUSTOMER: 
CNTY.                            COUNTRY: 
METD.                             METHOD: 
DPST.                            DEPOSIT: 
STTP.                        тип_станции: 
GTIP.                         партия_ГТИ: 
CHTP.                   тип_хроматографа: 
GRMT.                   начальник_отряда: 
BOSS.                   начальник_партии: 
DRLM.                        вид_бурения: 
PERS.                          операторы: 
OTR .                       номер_отряда: 
PRJD.M                   проектный_забой: 0,0
ALTR.M                  альтитуда_ротора: 0,0
WDIM.MM                 диаметр_скважины: 0,0
KDIM.MM               диаметр_кондуктора: 0,0
BKND.                  башмак_кондуктора: 0,0
KUST.                               Куст: 

~Curve
# ------------------- НАЗВАНИЯ КРИВЫХ -------------------- #
DEPT.м                                  : Глубина
TIME.                                   : Время
тальблок.м                              : Положение тальблока
вес_на_крюке.т                          : Вес на крюке
нагрузка.т.                             : Нагрузка на долото
момент_ротора.кН*м                      : Крутящий момент ротора
давление_на_входе.атм.                  : Давление ПЖ на входе
расход_на_входе.л/с                     : Расход ПЖ на входе
обороты_ротора.об/мин                   : Обороты ротора
температура_на_выходе.°С                : Температура на выходе
ходы_насоса1.ход/мин                    : Ходы насоса-1
ходы_насоса2.ход/мин                    : Ходы насоса-2
уровень_в_емкости.м                     : Уровень-1
уровень_в_емкости2.м                    : Уровень-2
уровень_в_емкости3.м                    : Уровень-3
объем_в_емкости1.м3                     : Объём-1
объем_в_емкости2.м3                     : Объём-2
объем_в_емкости3.м3                     : Объём-3
глубина_над_забоем.м                    : Глубина над забоем
объем_актив_емкости.м3                  : Объем ПЖ в активн.ёмкостях
скорость_механическая.м/ч               : Скорость механическая
скорость_бурения.м/ч                    : Скорость бурения
сумм_газ.%                              : Сумма газов хром.
метан_абс.%                             : Метан абс.
этан_абс.%                              : Этан абс.
пропан_абс.%                            : Пропан абс.
бутан_абс.%                             : Бутан абс.
пентан_абс.%                            : Пентан абс.
гексан_абс.%                            : Гексан абс.
метан_отн.%                             : Метан отн.
этан_отн.%                              : Этан отн.
пропан_отн.%                            : Пропан отн.
бутан_отн.%                             : Бутан отн.
пентан_отн.%                            : Пентан отн.
гексан_отн.%                            : Гексан отн.
объем_емкости.м3                        : Объем ПЖ в емкостях
объем_раствора.м3                       : Общий V раствора
PLOT.г/см3                              : Плот.пор.
POR .                                   : Пористость
CLCT.%                                  : Кальцит
DLMT.%                                  : Доломит
NO  .%                                  : Н.О.
LITO.                                   : Литология
SHL2.                                   : Шлам-2
SHL3.                                   : Шлам-3
SHL4.                                   : Шлам-4
SHL5.                                   : Шлам-5
SHL6.                                   : Шлам-6
nfst.                                   : Нефтенасыщенность
shl1.                                   : shl1
F1  .%                                  : Ф1
F2  .%                                  : Ф2
F3  .%                                  : Ф3
F4  .%                                  : Ф4
F5  .%                                  : Ф5
F6  .%                                  : Ф6
F7  .%                                  : Ф7
расход_на_выходе.%                      : Расход ПЖ на выходе
дмк .мин/м                              : ДМК
параметр1.атм                           : Параметр - 1

~Other Information
# --------------------- ТЕКСТОВЫЕ ДАННЫЕ --------------------- #
"лба" 22,40 22,40 0 0 "<1 БГ ЛБ" 0 0 11 16777215
"лба" 39,60 39,60 0 0 "<1 БГ ЛБ" 0 0 11 16777215
"лба" 58,40 58,40 0 0 "<1 БГ ЛБ" 0 0 11 16777215
"лба" 78,80 78,80 0 0 "<1 БГ ЛБ" 0 0 11 16777215
"лба" 99,20 99,20 0 0 "<1 БГ ЛБ" 0 0 11 16777215
"лба" 114,80 114,80 0 0 "<1 БГ ЛБ" 0 0 11 16777215
"лба" 131,00 131,00 0 0 "<1 БГ ЛБ" 0 0 11 16777215
"лба" 146,40 146,40 0 0 "<1 БГ ЛБ" 0 0 11 16777215
"лба" 163,20 163,20 0 0 "<1 БГ ЛБ" 0 0 11 16777215
"лба" 181,20 181,20 0 0 "<1 БГ ЛБ" 0 0 11 16777215
"лба" 197,20 197,20 0 0 "<1 БГ ЛБ" 0 0 11 16777215
"лба" 211,00 211,00 0 0 "<1 БГ ЛБ" 0 0 11 16777215
"лба" 221,80 221,80 0 0 "<1 БГ ЛБ" 0 0 11 16777215
"лба" 234,00 234,00 0 0 "<1 БГ ЛБ" 0 0 11 16777215
"лба" 246,80 246,80 0 0 "<1 БГ ЛБ" 0 0 11 16777215
"лба" 259,60 259,60 0 0 "<1 БГ ЛБ" 0 0 11 16777215
"лба" 268,60 268,60 0 0 "<1 БГ ЛБ" 0 0 11 16777215
"лба" 278,00 278,00 0 0 "<1 БГ ЛБ" 0 0 11 16777215
"лба" 284,00 284,00 0 0 "<1 БГ ЛБ" 0 0 11 16777215
"лба" 290,20 290,20 0 0 "<1 БГ ЛБ" 0 0 11 16777215
"лба" 299,40 299,40 0 0 "<1 БГ ЛБ" 0 0 11 16777215
"лба" 309,60 309,60 0 0 "<1 БГ ЛБ" 0 0 11 16777215
"лба" 319,80 319,80 0 0 "<1 БГ ЛБ" 0 0 11 16777215
"лба" 331,60 331,60 0 0 "<1 БГ ЛБ" 0 0 11 16777215
"лба" 341,00 341,00 0 0 "<1 БГ ЛБ" 0 0 11 16777215
"лба" 351,40 351,40 0 0 "<1 БГ ЛБ" 0 0 11 16777215
"лба" 359,40 359,40 0 0 "<1 БГ ЛБ" 0 0 11 16777215
"лба" 370,60 370,60 0 0 "<1 БГ ЛБ" 0 0 11 16777215
"лба" 380,80 380,80 0 0 "<1 БГ ЛБ" 0 0 11 16777215
"лба" 397,80 397,80 0 0 "<1 БГ ЛБ" 0 0 11 16777215
"лба" 415,80 415,80 0 0 "<1 БГ ЛБ" 0 0 11 16777215
"лба" 438,20 438,20 0 0 "<1 БГ ЛБ" 0 0 11 16777215
"лба" 461,00 461,00 0 0 "<1 БГ ЛБ" 0 0 11 16777215
"лба" 485,60 485,60 0 0 "<1 БГ ЛБ" 0 0 11 16777215
"лба" 501,40 501,40 0 0 "<1 БГ ЛБ" 0 0 11 16777215
"лба" 516,80 516,80 0 0 "<1 БГ ЛБ" 0 0 11 16777215
"лба" 531,40 531,40 0 0 "<1 БГ ЛБ" 0 0 11 16777215
"лба" 543,40 543,40 0 0 "<1 БГ ЛБ" 0 0 11 16777215
"лба" 552,40 552,40 0 0 "<1 БГ ЛБ" 0 0 11 16777215
"лба" 559,20 559,20 0 0 "<1 БГ ЛБ" 0 0 11 16777215
"лба" 566,60 566,60 0 0 "<1 БГ ЛБ" 0 0 11 16777215
"лба" 568,90 580,00 0 0 "нет нет нет" 0 0 11 16777215
"лба" 580,00 590,00 0 0 "нет нет нет" 0 0 11 16777215
"лба" 590,00 600,00 0 0 "нет нет нет" 0 0 11 16777215
"лба" 600,00 640,00 0 0 "нет нет нет" 0 0 11 16777215
"лба" 640,00 660,00 0 0 "нет нет нет" 0 0 11 16777215
"лба" 660,00 680,00 0 0 "нет нет нет" 0 0 11 16777215
"лба" 680,20 700,00 0 0 "нет нет нет" 0 0 11 16777215
"сумм_газ" 516,80 516,80 1176749486 0 "Проверка хроматографа" 0 0 10 16777215

# ------------------ ЗНАЧЕНИЯ КРИВЫХ ------------------ #
~ASCII Log Data
# ...
  71.0 1176328042.    6.544   16.70    3.002    0.458   16.23   35.38   60.98   22.50   58.87   -5.12    1.256    0.5144    0.5656   25.13   10.29   11.31    0.   46.73    8.46   10.18    0.001222    0.001151    0.000022    0.000009    0.000022    0.000018    0.000000   94.19    1.80    0.74    1.80    1.47    0.   46.73   45.6    0.    0.    5.00    0.000   95.00    3.0    3.10   18.40   13.10    0.00    0.    0.   12.90    0.    0.    0.    0.    0.    0.    0. -32768. -32768. -32768.
  71.2 1176328097.    6.343   16.67    3.035    0.362   16.39   35.24   62.24   22.50   59.26   -5.02    1.256    0.5137    0.5657   25.13   10.27   11.31    0.   46.71   13.05   11.78    0.001293    0.001201    0.000022    0.000008    0.000040    0.000022    0.000000   92.88    1.70    0.62    3.09    1.70    0.   46.71   45.6    0.    0.    5.00    0.000   95.00    3.0    3.10   18.40   13.10    0.00    0.    0.   12.90    0.    0.    0.    0.    0.    0.    0. -32768. -32768. -32768.
  71.4 1176328152.    6.150   16.76    2.943    0.559   16.67   35.04   62.10   22.55   58.90   -4.59    1.257    0.5153    0.5659   25.14   10.31   11.32    0.   46.76   11.75   12.52    0.001381    0.001283    0.000023    0.000015    0.000038    0.000022    0.000000   92.90    1.67    1.09    2.75    1.59    0.   46.76   45.6    0.    0.    5.00    0.000   95.00    3.0    3.10   18.40   13.10    0.00    0.    0.   12.90    0.    0.    0.    0.    0.    0.    0. -32768. -32768. -32768.
  71.6 1176328224.    5.953   16.47    3.140    0.202   16.81   35.24   60.86   22.42   59.07   -5.11    1.257    0.5134    0.5658   25.13   10.27   11.32    0.   46.72   10.01   11.80    0.001616    0.001517    0.000027    0.000033    0.000020    0.000019    0.000000   93.87    1.67    2.04    1.24    1.18    0.   46.72   45.6    0.    0.    5.00    0.000   95.00    3.0    3.10   18.40   13.10    0.00    0.    0.   12.90    0.    0.    0.    0.    0.    0.    0. -32768. -32768. -32768.
  71.8 1176328285.    5.746   16.63    2.995    0.457   16.73   35.19   61.59   22.45   58.62   -5.19    1.252    0.5106    0.5659   25.05   10.21   11.32    0.   46.58   12.24   11.59    0.001739    0.001642    0.000028    0.000010    0.000041    0.000018    0.000000   94.42    1.61    0.58    2.36    1.04    0.   46.58   45.4    0.    0.    5.00    0.000   95.00    3.0    3.10   18.40   13.10    0.00    0.    0.   12.90    0.    0.    0.    0.    0.    0.    0. -32768. -32768. -32768.
  72.0 1176328326.    5.554   16.16    3.536    0.566   16.69   35.20   61.63   22.51   59.34   -5.16    1.255    0.5093    0.5660   25.10   10.19   11.32    0.   46.61   16.45   13.24    0.001909    0.001834    0.000023    0.000010    0.000026    0.000016    0.000000   96.07    1.20    0.52    1.36    0.84    0.   46.61   45.5    0.    0.    5.00    0.000   95.00    3.0    3.10   18.40   13.10    0.00    0.    0.   12.90    0.    0.    0.    0.    0.    0.    0. -32768. -32768. -32768.
  72.2 1176328371.    5.349   17.01    2.694    0.390   16.63   35.26   62.00   22.55   59.09   -5.12    1.246    0.5090    0.5658   24.92   10.18   11.32    0.   46.42   17.88   16.96    0.001980    0.001913    0.000021    0.000010    0.000020    0.000016    0.000000   96.62    1.06    0.51    1.01    0.81    0.   46.42   45.3    0.    0.    5.00    0.000   95.00    3.0    3.10   18.40   13.10    0.00    0.    0.   12.90    0.    0.    0.    0.    0.    0.    0. -32768. -32768. -32768.
  72.4 1176328403.    5.137   16.91    2.789    0.168   16.84   35.08   61.69   22.57   59.56   -5.12    1.246    0.5091    0.5658   24.92   10.18   11.32    0.   46.42   20.20   19.89    0.002083    0.002011    0.000019    0.000009    0.000020    0.000024    0.000000   96.54    0.91    0.43    0.96    1.15    0.   46.42   45.3    0.    0.    5.00    0.000   95.00    3.0    3.10   18.40   13.10    0.00    0.    0.   12.90    0.    0.    0.    0.    0.    0.    0. -32768. -32768. -32768.
  72.6 1176328445.    4.942   16.91    2.794    0.580   16.84   35.13   61.29   22.57   59.13   -5.14    1.245    0.5078    0.5659   24.91   10.15   11.32    0.   46.38   18.51   19.57    0.002108    0.002033    0.000019    0.000009    0.000021    0.000026    0.000000   96.44    0.90    0.43    1.00    1.23    0.   46.38   45.2    0.    0.    5.00    0.000   95.00    3.0    3.10   18.40   13.10    0.00    0.    0.   12.90    0.    0.    0.    0.    0.    0.    0. -32768. -32768. -32768.
  72.8 1176328503.    4.743   17.10    2.532    0.249   16.86   35.19   60.74   22.65   58.67   -5.17    1.244    0.5082    0.5658   24.88   10.16   11.32    0.   46.36   13.57   15.28    0.002325    0.002244    0.000022    0.000011    0.000018    0.000030    0.000000   96.52    0.95    0.47    0.77    1.29    0.   46.36   45.2    0.    0.    5.00    0.000   95.00    3.0    3.10   18.40   13.10    0.00    0.    0.   12.90    0.    0.    0.    0.    0.    0.    0. -32768. -32768. -32768.
  73.0 1176328539.    4.531   15.52    4.176    0.252   16.84   35.40   61.88   22.63   58.86   -5.18    1.244    0.5077    0.5659   24.89   10.15   11.32    0.   46.36   17.17   16.06    0.002385    0.002303    0.000022    0.000012    0.000017    0.000031    0.000000   96.56    0.92    0.50    0.71    1.30    0.   46.36   45.2    0.    0.    5.00    0.000   95.00    3.0    3.10   18.40   13.10    0.00    0.    0.   12.90    0.    0.    0.    0.    0.    0.    0. -32768. -32768. -32768.
  73.2 1176328585.    4.342   16.90    2.800    0.063   16.81   35.13   62.29   22.69   58.97   -5.14    1.244    0.5083    0.5658   24.88   10.17   11.31    0.   46.36   16.61   18.07    0.002526    0.002430    0.000016    0.000024    0.000018    0.000038    0.000000   96.20    0.63    0.95    0.71    1.50    0.   46.36   45.2    0.    0.    5.00    0.000   95.00    3.0    3.10   18.40   13.10    0.00    0.    0.   12.90    0.    0.    0.    0.    0.    0.    0. -32768. -32768. -32768.
  73.4 1176328621.    4.148   16.74    2.963    0.419   16.80   35.20   62.38   22.66   58.86   -5.10    1.244    0.5082    0.5657   24.89   10.16   11.32    0.   46.36   20.88   17.46    0.002532    0.002438    0.000016    0.000022    0.000020    0.000036    0.000000   96.29    0.63    0.87    0.79    1.42    0.   46.36   45.2    0.    0.    5.00    0.000   95.00   12.0    3.10   18.40   13.10    0.00    0.    0.   12.90    0.    0.    0.    0.    0.    0.    0. -32768. -32768. -32768.
  73.6 1176328675.    3.942   17.69    1.865    0.253   16.86   35.30   62.89   22.68   59.36   -5.09    1.244    0.5086    0.5657   24.88   10.17   11.31    0.   46.37   13.01   16.97    0.002611    0.002527    0.000016    0.000008    0.000047    0.000013    0.000000   96.78    0.61    0.31    1.80    0.50    0.   46.37   45.2    0.    0.    5.00    0.000   95.00   12.0    3.10   18.40   13.10    0.00    0.    0.   12.90    0.    0.    0.    0.    0.    0.    0. -32768. -32768. -32768.
  73.8 1176328744.    3.746   16.98    2.720    0.469   16.80   35.14   62.27   22.68   58.90   -5.09    1.244    0.5082    0.5658   24.88   10.16   11.32    0.   46.36   11.16   11.90    0.002611    0.002504    0.000032    0.000010    0.000034    0.000031    0.000000   95.90    1.23    0.38    1.30    1.19    0.   46.36   45.2    0.    0.    5.00    0.000   95.00   12.0    3.10   18.40   13.10    0.00    0.    0.   12.90    0.    0.    0.    0.    0.    0.    0. -32768. -32768. -32768.
  74.0 1176328780.    3.544   16.50    3.196    0.489   16.87   35.09   61.91   22.80   59.81   -5.12    1.244    0.5096    0.5659   24.89   10.19   11.32    0.   46.40   20.07   15.14    0.002625    0.002511    0.000038    0.000011    0.000026    0.000039    0.000000   95.66    1.45    0.42    0.99    1.49    0.   46.40   45.3    0.    0.    5.00    0.000   95.00   12.0    3.10   18.40   13.10    0.00    0.    0.   12.90    0.    0.    0.    0.    0.    0.    0. -32768. -32768. -32768.
  74.2 1176328815.    3.342   16.19    3.507    0.476   16.81   35.27   61.55   22.82   59.08   -5.11    1.244    0.5083    0.5658   24.88   10.17   11.32    0.   46.37   22.99   19.95    0.002878    0.002819    0.000013    0.000007    0.000017    0.000022    0.000000   97.95    0.45    0.24    0.59    0.76    0.   46.37   45.2    0.    0.    5.00    0.000   95.00   12.0    3.10   18.40   13.10    0.00    0.    0.   12.90    0.    0.    0.    0.    0.    0.    0. -32768. -32768. -32768.
